{"type": "FeatureCollection", "features": [{"type": "Feature", "geometry": {"type": "Point", "coordinates": [2.118651, 13.569883]}, "properties": {"name": "Al-Hidaya", "level": "Unknown", "iso": "NER", "source": "osm", "mly_count": 0, "mly_count_filtered": 0, "mly_last_year": null, "mly_close": false, "mly_top": []}}, {"type": "Feature", "geometry": {"type": "Point", "coordinates": [2.122072, 13.540791]}, "properties": {"name": "\u00c9cole primaire Koira M\u00e8", "level": "Unknown", "iso": "NER", "source": "osm", "mly_count": 0, "mly_count_filtered": 0, "mly_last_year": null, "mly_close": false, "mly_top": []}}, {"type": "Feature", "geometry": {"type": "Point", "coordinates": [7.535303, 13.417547]}, "properties": {"name": "\u00c9cole Primaire Magami", "level": "Unknown", "iso": "NER", "source": "osm", "mly_count": 0, "mly_count_filtered": 0, "mly_last_year": null, "mly_close": false, "mly_top": []}}, {"type": "Feature", "geometry": {"type": "Point", "coordinates": [2.123746, 13.558162]}, "properties": {"name": "Lazaret 1", "level": "Unknown", "iso": "NER", "source": "osm", "mly_count": 0, "mly_count_filtered": 0, "mly_last_year": null, "mly_close": false, "mly_top": []}}, {"type": "Feature", "geometry": {"type": "Point", "coordinates": [2.167707, 13.474357]}, "properties": {"name": "\u00c9cole Primaire et Jardin d'Enfants Rhodesie 1", "level": "Unknown", "iso": "NER", "source": "osm", "mly_count": 0, "mly_count_filtered": 0, "mly_last_year": null, "mly_close": false, "mly_top": []}}, {"type": "Feature", "geometry": {"type": "Point", "coordinates": [9.00732, 13.89165]}, "properties": {"name": "(unnamed)", "level": "Unknown", "iso": "NER", "source": "osm", "mly_count": 0, "mly_count_filtered": 0, "mly_last_year": null, "mly_close": false, "mly_top": []}}, {"type": "Feature", "geometry": {"type": "Point", "coordinates": [12.736697, 13.364476]}, "properties": {"name": "(unnamed)", "level": "Unknown", "iso": "NER", "source": "osm", "mly_count": 0, "mly_count_filtered": 0, "mly_last_year": null, "mly_close": false, "mly_top": []}}, {"type": "Feature", "geometry": {"type": "Point", "coordinates": [7.998047, 16.981528]}, "properties": {"name": "\u00c9cole Coranique", "level": "Unknown", "iso": "NER", "source": "osm", "mly_count": 0, "mly_count_filtered": 0, "mly_last_year": null, "mly_close": false, "mly_top": []}}, {"type": "Feature", "geometry": {"type": "Point", "coordinates": [12.092676, 13.121954]}, "properties": {"name": "(unnamed)", "level": "Unknown", "iso": "NER", "source": "osm", "mly_count": 0, "mly_count_filtered": 0, "mly_last_year": null, "mly_close": false, "mly_top": []}}, {"type": "Feature", "geometry": {"type": "Point", "coordinates": [7.945848, 13.34372]}, "properties": {"name": "(unnamed)", "level": "Unknown", "iso": "NER", "source": "osm", "mly_count": 2, "mly_count_filtered": 2, "mly_last_year": 2025, "mly_close": false, "mly_top": [{"id": "2569873630039364", "captured_at": 1740809403500, "lon": 7.944403, "lat": 13.343534, "is_pano": false, "compass": 286.5, "bearing_to_school": 82.5, "heading_off_deg": 156.0, "looks_at_school": false, "dist_m": 157.7}, {"id": "24184136977895087", "captured_at": 1740809403500, "lon": 7.944403, "lat": 13.343534, "is_pano": false, "compass": 286.5, "bearing_to_school": 82.5, "heading_off_deg": 156.0, "looks_at_school": false, "dist_m": 157.7}]}}, {"type": "Feature", "geometry": {"type": "Point", "coordinates": [11.489811, 13.417235]}, "properties": {"name": "(unnamed)", "level": "Unknown", "iso": "NER", "source": "osm", "mly_count": 0, "mly_count_filtered": 0, "mly_last_year": null, "mly_close": false, "mly_top": []}}, {"type": "Feature", "geometry": {"type": "Point", "coordinates": [9.50697, 13.685761]}, "properties": {"name": "(unnamed)", "level": "Unknown", "iso": "NER", "source": "osm", "mly_count": 0, "mly_count_filtered": 0, "mly_last_year": null, "mly_close": false, "mly_top": []}}, {"type": "Feature", "geometry": {"type": "Point", "coordinates": [9.005729, 13.785479]}, "properties": {"name": "(unnamed)", "level": "Unknown", "iso": "NER", "source": "osm", "mly_count": 0, "mly_count_filtered": 0, "mly_last_year": null, "mly_close": false, "mly_top": []}}, {"type": "Feature", "geometry": {"type": "Point", "coordinates": [8.16055, 13.352647]}, "properties": {"name": "\u00c9cole Primaire Koufan Mai Kafi", "level": "Unknown", "iso": "NER", "source": "osm", "mly_count": 4, "mly_count_filtered": 4, "mly_last_year": 2025, "mly_close": false, "mly_top": [{"id": "1749164235786333", "captured_at": 1758777699300, "lon": 8.160571, "lat": 13.35411, "is_pano": false, "compass": 286.4, "bearing_to_school": 180.8, "heading_off_deg": 105.6, "looks_at_school": false, "dist_m": 162.7}, {"id": "630525019992264", "captured_at": 1758777699300, "lon": 8.160571, "lat": 13.35411, "is_pano": false, "compass": 286.4, "bearing_to_school": 180.8, "heading_off_deg": 105.6, "looks_at_school": false, "dist_m": 162.7}, {"id": "1921969891718801", "captured_at": 1760937151266, "lon": 8.161544, "lat": 13.353886, "is_pano": false, "compass": 286.4, "bearing_to_school": 218.0, "heading_off_deg": 68.5, "looks_at_school": false, "dist_m": 174.8}, {"id": "1576822049983825", "captured_at": 1760937151266, "lon": 8.161544, "lat": 13.353886, "is_pano": false, "compass": 286.4, "bearing_to_school": 218.0, "heading_off_deg": 68.5, "looks_at_school": false, "dist_m": 174.8}]}}, {"type": "Feature", "geometry": {"type": "Point", "coordinates": [13.06205, 13.550886]}, "properties": {"name": "Ecole de Dagaya", "level": "Unknown", "iso": "NER", "source": "osm", "mly_count": 0, "mly_count_filtered": 0, "mly_last_year": null, "mly_close": false, "mly_top": []}}, {"type": "Feature", "geometry": {"type": "Point", "coordinates": [2.098787, 13.489706]}, "properties": {"name": "CSP Wourro-Soukab\u00e9", "level": "Unknown", "iso": "NER", "source": "osm", "mly_count": 29, "mly_count_filtered": 29, "mly_last_year": 2018, "mly_close": false, "mly_top": [{"id": "153777753413697", "captured_at": 1525708744817, "lon": 2.097872, "lat": 13.490587, "is_pano": false, "compass": 151.1, "bearing_to_school": 134.7, "heading_off_deg": 16.4, "looks_at_school": true, "dist_m": 139.2}, {"id": "297744748516490", "captured_at": 1525708742687, "lon": 2.097852, "lat": 13.490639, "is_pano": false, "compass": 149.7, "bearing_to_school": 135.7, "heading_off_deg": 13.9, "looks_at_school": true, "dist_m": 144.8}, {"id": "919394888882454", "captured_at": 1525708741084, "lon": 2.097816, "lat": 13.490717, "is_pano": false, "compass": 145.1, "bearing_to_school": 137.0, "heading_off_deg": 8.1, "looks_at_school": true, "dist_m": 153.8}, {"id": "4626956927320980", "captured_at": 1525708739406, "lon": 2.097775, "lat": 13.49078, "is_pano": false, "compass": 155.6, "bearing_to_school": 137.5, "heading_off_deg": 18.1, "looks_at_school": true, "dist_m": 162.0}, {"id": "651889135655074", "captured_at": 1525708737739, "lon": 2.097758, "lat": 13.490837, "is_pano": false, "compass": 169.6, "bearing_to_school": 138.5, "heading_off_deg": 31.1, "looks_at_school": true, "dist_m": 167.9}, {"id": "2915253532061889", "captured_at": 1525708726224, "lon": 2.097963, "lat": 13.491387, "is_pano": false, "compass": 184.2, "bearing_to_school": 154.5, "heading_off_deg": 29.6, "looks_at_school": true, "dist_m": 207.0}]}}, {"type": "Feature", "geometry": {"type": "Point", "coordinates": [7.014853, 13.62093]}, "properties": {"name": "\u00c9cole Primaire", "level": "Unknown", "iso": "NER", "source": "osm", "mly_count": 31, "mly_count_filtered": 31, "mly_last_year": 2024, "mly_close": true, "mly_top": [{"id": "1011971287306449", "captured_at": 1719767145633, "lon": 7.01467, "lat": 13.621833, "is_pano": false, "compass": 128.3, "bearing_to_school": 168.8, "heading_off_deg": 40.5, "looks_at_school": true, "dist_m": 102.3}, {"id": "1776437132765531", "captured_at": 1719767144654, "lon": 7.014512, "lat": 13.621943, "is_pano": false, "compass": 128.8, "bearing_to_school": 161.9, "heading_off_deg": 33.1, "looks_at_school": true, "dist_m": 118.5}, {"id": "1171982140510896", "captured_at": 1719767143575, "lon": 7.01433, "lat": 13.622071, "is_pano": false, "compass": 128.3, "bearing_to_school": 156.0, "heading_off_deg": 27.7, "looks_at_school": true, "dist_m": 138.8}, {"id": "459577013452153", "captured_at": 1719767142626, "lon": 7.014169, "lat": 13.622182, "is_pano": false, "compass": 127.5, "bearing_to_school": 152.1, "heading_off_deg": 24.5, "looks_at_school": true, "dist_m": 157.6}, {"id": "505832532108297", "captured_at": 1719767141579, "lon": 7.013984, "lat": 13.622306, "is_pano": false, "compass": 127.7, "bearing_to_school": 148.5, "heading_off_deg": 20.8, "looks_at_school": true, "dist_m": 179.5}, {"id": "680003450959027", "captured_at": 1719767140634, "lon": 7.013812, "lat": 13.622419, "is_pano": false, "compass": 126.6, "bearing_to_school": 145.8, "heading_off_deg": 19.2, "looks_at_school": true, "dist_m": 200.2}]}}, {"type": "Feature", "geometry": {"type": "Point", "coordinates": [2.085907, 13.528289]}, "properties": {"name": "\u00c9cole Primaire Yantala 1", "level": "Unknown", "iso": "NER", "source": "osm", "mly_count": 40, "mly_count_filtered": 40, "mly_last_year": 2017, "mly_close": false, "mly_top": [{"id": "169149911761438", "captured_at": 1507024316156, "lon": 2.085562, "lat": 13.526421, "is_pano": false, "compass": 355.8, "bearing_to_school": 10.2, "heading_off_deg": 14.4, "looks_at_school": true, "dist_m": 211.1}, {"id": "1745204825687160", "captured_at": 1507024314148, "lon": 2.085759, "lat": 13.52625, "is_pano": false, "compass": 352.0, "bearing_to_school": 4.0, "heading_off_deg": 12.0, "looks_at_school": true, "dist_m": 227.3}, {"id": "1235060623578938", "captured_at": 1507024336377, "lon": 2.083784, "lat": 13.52815, "is_pano": false, "compass": 61.9, "bearing_to_school": 86.2, "heading_off_deg": 24.3, "looks_at_school": true, "dist_m": 230.0}, {"id": "1170497383380559", "captured_at": 1507024338331, "lon": 2.08368, "lat": 13.528308, "is_pano": false, "compass": 52.6, "bearing_to_school": 90.5, "heading_off_deg": 37.9, "looks_at_school": true, "dist_m": 240.8}, {"id": "2648773155421294", "captured_at": 1507024312147, "lon": 2.085961, "lat": 13.526104, "is_pano": false, "compass": 346.7, "bearing_to_school": 358.6, "heading_off_deg": 11.9, "looks_at_school": true, "dist_m": 243.1}, {"id": "469835320950778", "captured_at": 1477642157523, "lon": 2.087382, "lat": 13.52916, "is_pano": false, "compass": 319.3, "bearing_to_school": 238.7, "heading_off_deg": 80.6, "looks_at_school": false, "dist_m": 186.5}]}}, {"type": "Feature", "geometry": {"type": "Point", "coordinates": [12.734905, 13.369173]}, "properties": {"name": "(unnamed)", "level": "Unknown", "iso": "NER", "source": "osm", "mly_count": 0, "mly_count_filtered": 0, "mly_last_year": null, "mly_close": false, "mly_top": []}}, {"type": "Feature", "geometry": {"type": "Point", "coordinates": [9.319704, 12.898544]}, "properties": {"name": "(unnamed)", "level": "Unknown", "iso": "NER", "source": "osm", "mly_count": 0, "mly_count_filtered": 0, "mly_last_year": null, "mly_close": false, "mly_top": []}}, {"type": "Feature", "geometry": {"type": "Point", "coordinates": [7.46455, 13.563126]}, "properties": {"name": "\u00c9cole primaire Zango May Djangeuro", "level": "Unknown", "iso": "NER", "source": "osm", "mly_count": 0, "mly_count_filtered": 0, "mly_last_year": null, "mly_close": false, "mly_top": []}}, {"type": "Feature", "geometry": {"type": "Point", "coordinates": [8.006656, 16.983377]}, "properties": {"name": "\u00c9cole Azine 1", "level": "Unknown", "iso": "NER", "source": "osm", "mly_count": 0, "mly_count_filtered": 0, "mly_last_year": null, "mly_close": false, "mly_top": []}}, {"type": "Feature", "geometry": {"type": "Point", "coordinates": [2.101612, 13.486632]}, "properties": {"name": "\u00c9cole Primaire Pont Kennedy", "level": "Unknown", "iso": "NER", "source": "osm", "mly_count": 0, "mly_count_filtered": 0, "mly_last_year": null, "mly_close": false, "mly_top": []}}, {"type": "Feature", "geometry": {"type": "Point", "coordinates": [8.979732, 13.832384]}, "properties": {"name": "(unnamed)", "level": "Unknown", "iso": "NER", "source": "osm", "mly_count": 0, "mly_count_filtered": 0, "mly_last_year": null, "mly_close": false, "mly_top": []}}, {"type": "Feature", "geometry": {"type": "Point", "coordinates": [5.981383, 14.08536]}, "properties": {"name": "Ecole Primaire de Tsaidaoua", "level": "Unknown", "iso": "NER", "source": "osm", "mly_count": 0, "mly_count_filtered": 0, "mly_last_year": null, "mly_close": false, "mly_top": []}}, {"type": "Feature", "geometry": {"type": "Point", "coordinates": [1.083759, 14.553566]}, "properties": {"name": "(unnamed)", "level": "Unknown", "iso": "NER", "source": "osm", "mly_count": 0, "mly_count_filtered": 0, "mly_last_year": null, "mly_close": false, "mly_top": []}}, {"type": "Feature", "geometry": {"type": "Point", "coordinates": [10.937899, 13.607597]}, "properties": {"name": "(unnamed)", "level": "Unknown", "iso": "NER", "source": "osm", "mly_count": 0, "mly_count_filtered": 0, "mly_last_year": null, "mly_close": false, "mly_top": []}}, {"type": "Feature", "geometry": {"type": "Point", "coordinates": [2.082807, 13.533771]}, "properties": {"name": "CSP Faza 2", "level": "Unknown", "iso": "NER", "source": "osm", "mly_count": 0, "mly_count_filtered": 0, "mly_last_year": null, "mly_close": false, "mly_top": []}}, {"type": "Feature", "geometry": {"type": "Point", "coordinates": [2.184617, 13.512703]}, "properties": {"name": "CSP Assifa", "level": "Unknown", "iso": "NER", "source": "osm", "mly_count": 0, "mly_count_filtered": 0, "mly_last_year": null, "mly_close": false, "mly_top": []}}, {"type": "Feature", "geometry": {"type": "Point", "coordinates": [2.17295, 13.515416]}, "properties": {"name": "Lyc\u00e9e d'Excellence de Niamey", "level": "Unknown", "iso": "NER", "source": "osm", "mly_count": 0, "mly_count_filtered": 0, "mly_last_year": null, "mly_close": false, "mly_top": []}}, {"type": "Feature", "geometry": {"type": "Point", "coordinates": [2.184927, 13.509608]}, "properties": {"name": "CSP Kokori", "level": "Unknown", "iso": "NER", "source": "osm", "mly_count": 0, "mly_count_filtered": 0, "mly_last_year": null, "mly_close": false, "mly_top": []}}, {"type": "Feature", "geometry": {"type": "Point", "coordinates": [5.245003, 13.799691]}, "properties": {"name": "csp nouvelle elite", "level": "Unknown", "iso": "NER", "source": "osm", "mly_count": 0, "mly_count_filtered": 0, "mly_last_year": null, "mly_close": false, "mly_top": []}}, {"type": "Feature", "geometry": {"type": "Point", "coordinates": [2.096835, 13.574865]}, "properties": {"name": "CSP Madina", "level": "Unknown", "iso": "NER", "source": "osm", "mly_count": 0, "mly_count_filtered": 0, "mly_last_year": null, "mly_close": false, "mly_top": []}}, {"type": "Feature", "geometry": {"type": "Point", "coordinates": [9.187314, 13.211723]}, "properties": {"name": "Bangaza", "level": "Unknown", "iso": "NER", "source": "osm", "mly_count": 0, "mly_count_filtered": 0, "mly_last_year": null, "mly_close": false, "mly_top": []}}, {"type": "Feature", "geometry": {"type": "Point", "coordinates": [12.078776, 13.155758]}, "properties": {"name": "(unnamed)", "level": "Unknown", "iso": "NER", "source": "osm", "mly_count": 0, "mly_count_filtered": 0, "mly_last_year": null, "mly_close": false, "mly_top": []}}, {"type": "Feature", "geometry": {"type": "Point", "coordinates": [11.390584, 13.426607]}, "properties": {"name": "(unnamed)", "level": "Unknown", "iso": "NER", "source": "osm", "mly_count": 0, "mly_count_filtered": 0, "mly_last_year": null, "mly_close": false, "mly_top": []}}, {"type": "Feature", "geometry": {"type": "Point", "coordinates": [2.187269, 13.466756]}, "properties": {"name": "\u00c9cole Primaire A\u00e9roport 9", "level": "Unknown", "iso": "NER", "source": "osm", "mly_count": 0, "mly_count_filtered": 0, "mly_last_year": null, "mly_close": false, "mly_top": []}}, {"type": "Feature", "geometry": {"type": "Point", "coordinates": [12.031103, 13.223315]}, "properties": {"name": "(unnamed)", "level": "Unknown", "iso": "NER", "source": "osm", "mly_count": 0, "mly_count_filtered": 0, "mly_last_year": null, "mly_close": false, "mly_top": []}}, {"type": "Feature", "geometry": {"type": "Point", "coordinates": [7.775488, 13.496065]}, "properties": {"name": "CSP Foureratou", "level": "Unknown", "iso": "NER", "source": "osm", "mly_count": 0, "mly_count_filtered": 0, "mly_last_year": null, "mly_close": false, "mly_top": []}}, {"type": "Feature", "geometry": {"type": "Point", "coordinates": [2.110964, 13.48154]}, "properties": {"name": "\u00c9cole Primaire Madressa Kirkissoye", "level": "Unknown", "iso": "NER", "source": "osm", "mly_count": 0, "mly_count_filtered": 0, "mly_last_year": null, "mly_close": false, "mly_top": []}}, {"type": "Feature", "geometry": {"type": "Point", "coordinates": [2.122423, 13.496014]}, "properties": {"name": "CSP Intelligence", "level": "Unknown", "iso": "NER", "source": "osm", "mly_count": 88, "mly_count_filtered": 88, "mly_last_year": 2018, "mly_close": true, "mly_top": [{"id": "450622126002652", "captured_at": 1523269143736, "lon": 2.122252, "lat": 13.495348, "is_pano": false, "compass": 58.6, "bearing_to_school": 14.0, "heading_off_deg": 44.6, "looks_at_school": true, "dist_m": 76.3}, {"id": "220562993165427", "captured_at": 1507648333742, "lon": 2.122189, "lat": 13.495318, "is_pano": false, "compass": 61.7, "bearing_to_school": 18.1, "heading_off_deg": 43.6, "looks_at_school": true, "dist_m": 81.4}, {"id": "889192851937059", "captured_at": 1523269142278, "lon": 2.122187, "lat": 13.495316, "is_pano": false, "compass": 60.4, "bearing_to_school": 18.2, "heading_off_deg": 42.2, "looks_at_school": true, "dist_m": 81.7}, {"id": "500127784674887", "captured_at": 1507648332299, "lon": 2.12212, "lat": 13.495286, "is_pano": false, "compass": 58.4, "bearing_to_school": 22.1, "heading_off_deg": 36.4, "looks_at_school": true, "dist_m": 87.3}, {"id": "1177659079344738", "captured_at": 1523269140913, "lon": 2.122116, "lat": 13.495285, "is_pano": false, "compass": 62.8, "bearing_to_school": 22.3, "heading_off_deg": 40.5, "looks_at_school": true, "dist_m": 87.6}, {"id": "1180312262397390", "captured_at": 1523269139396, "lon": 2.122034, "lat": 13.495249, "is_pano": false, "compass": 61.3, "bearing_to_school": 26.3, "heading_off_deg": 35.0, "looks_at_school": true, "dist_m": 94.9}]}}, {"type": "Feature", "geometry": {"type": "Point", "coordinates": [7.176446, 13.639744]}, "properties": {"name": "(unnamed)", "level": "Unknown", "iso": "NER", "source": "osm", "mly_count": 0, "mly_count_filtered": 0, "mly_last_year": null, "mly_close": false, "mly_top": []}}, {"type": "Feature", "geometry": {"type": "Point", "coordinates": [8.414254, 17.628645]}, "properties": {"name": "(unnamed)", "level": "Unknown", "iso": "NER", "source": "osm", "mly_count": 0, "mly_count_filtered": 0, "mly_last_year": null, "mly_close": false, "mly_top": []}}, {"type": "Feature", "geometry": {"type": "Point", "coordinates": [2.101446, 13.544527]}, "properties": {"name": "Dar-Es-Salam 2", "level": "Unknown", "iso": "NER", "source": "osm", "mly_count": 0, "mly_count_filtered": 0, "mly_last_year": null, "mly_close": false, "mly_top": []}}, {"type": "Feature", "geometry": {"type": "Point", "coordinates": [1.506601, 14.16379]}, "properties": {"name": "Ecole Primaire Traditionnelle de Daiberi", "level": "Unknown", "iso": "NER", "source": "osm", "mly_count": 0, "mly_count_filtered": 0, "mly_last_year": null, "mly_close": false, "mly_top": []}}, {"type": "Feature", "geometry": {"type": "Point", "coordinates": [2.032471, 13.582072]}, "properties": {"name": "Hallasseye", "level": "Unknown", "iso": "NER", "source": "osm", "mly_count": 0, "mly_count_filtered": 0, "mly_last_year": null, "mly_close": false, "mly_top": []}}, {"type": "Feature", "geometry": {"type": "Point", "coordinates": [2.115046, 13.513031]}, "properties": {"name": "\u00c9cole primaire Kalley Amirou II", "level": "Unknown", "iso": "NER", "source": "osm", "mly_count": 134, "mly_count_filtered": 134, "mly_last_year": 2020, "mly_close": false, "mly_top": [{"id": "505546547330992", "captured_at": 1507194004445, "lon": 2.11362, "lat": 13.513164, "is_pano": false, "compass": 104.3, "bearing_to_school": 95.5, "heading_off_deg": 8.8, "looks_at_school": true, "dist_m": 154.8}, {"id": "176286117721122", "captured_at": 1507194008641, "lon": 2.113612, "lat": 13.513158, "is_pano": false, "compass": 91.3, "bearing_to_school": 95.2, "heading_off_deg": 3.9, "looks_at_school": true, "dist_m": 155.7}, {"id": "573327527171084", "captured_at": 1507194011913, "lon": 2.113608, "lat": 13.513173, "is_pano": false, "compass": 104.9, "bearing_to_school": 95.8, "heading_off_deg": 9.1, "looks_at_school": true, "dist_m": 156.3}, {"id": "464843724598319", "captured_at": 1507194010556, "lon": 2.113593, "lat": 13.513178, "is_pano": false, "compass": 99.5, "bearing_to_school": 95.9, "heading_off_deg": 3.6, "looks_at_school": true, "dist_m": 157.9}, {"id": "2540877822873255", "captured_at": 1507194001696, "lon": 2.113531, "lat": 13.513189, "is_pano": false, "compass": 105.1, "bearing_to_school": 96.1, "heading_off_deg": 9.0, "looks_at_school": true, "dist_m": 164.8}, {"id": "307296660845242", "captured_at": 1507193999580, "lon": 2.113498, "lat": 13.513215, "is_pano": false, "compass": 98.7, "bearing_to_school": 97.0, "heading_off_deg": 1.8, "looks_at_school": true, "dist_m": 168.6}]}}, {"type": "Feature", "geometry": {"type": "Point", "coordinates": [2.136852, 13.524565]}, "properties": {"name": "Lyc\u00e9e Abach\u00e9 Chaibou", "level": "Unknown", "iso": "NER", "source": "osm", "mly_count": 1, "mly_count_filtered": 1, "mly_last_year": 2018, "mly_close": false, "mly_top": [{"id": "114689640672639", "captured_at": 1536230749852, "lon": 2.137297, "lat": 13.52325, "is_pano": false, "compass": 47.3, "bearing_to_school": 341.8, "heading_off_deg": 65.5, "looks_at_school": false, "dist_m": 153.9}]}}, {"type": "Feature", "geometry": {"type": "Point", "coordinates": [2.13691, 13.524628]}, "properties": {"name": "Lyc\u00e9e Municipal", "level": "Unknown", "iso": "NER", "source": "osm", "mly_count": 1, "mly_count_filtered": 1, "mly_last_year": 2018, "mly_close": false, "mly_top": [{"id": "114689640672639", "captured_at": 1536230749852, "lon": 2.137297, "lat": 13.52325, "is_pano": false, "compass": 47.3, "bearing_to_school": 344.7, "heading_off_deg": 62.6, "looks_at_school": false, "dist_m": 158.8}]}}, {"type": "Feature", "geometry": {"type": "Point", "coordinates": [5.498743, 13.965263]}, "properties": {"name": "CES/FA Malbaza", "level": "Unknown", "iso": "NER", "source": "osm", "mly_count": 0, "mly_count_filtered": 0, "mly_last_year": null, "mly_close": false, "mly_top": []}}, {"type": "Feature", "geometry": {"type": "Point", "coordinates": [7.106724, 13.475214]}, "properties": {"name": "Ecole Primaire Festivale", "level": "Unknown", "iso": "NER", "source": "osm", "mly_count": 0, "mly_count_filtered": 0, "mly_last_year": null, "mly_close": false, "mly_top": []}}, {"type": "Feature", "geometry": {"type": "Point", "coordinates": [3.349184, 13.338378]}, "properties": {"name": "CEG Tibo Beri", "level": "Unknown", "iso": "NER", "source": "osm", "mly_count": 0, "mly_count_filtered": 0, "mly_last_year": null, "mly_close": false, "mly_top": []}}, {"type": "Feature", "geometry": {"type": "Point", "coordinates": [12.303544, 13.184274]}, "properties": {"name": "(unnamed)", "level": "Unknown", "iso": "NER", "source": "osm", "mly_count": 19, "mly_count_filtered": 19, "mly_last_year": 2024, "mly_close": false, "mly_top": [{"id": "2645761468925148", "captured_at": 1719921674255, "lon": 12.303938, "lat": 13.186087, "is_pano": false, "compass": 101.0, "bearing_to_school": 191.9, "heading_off_deg": 91.0, "looks_at_school": false, "dist_m": 206.0}, {"id": "460691180032926", "captured_at": 1719921675265, "lon": 12.304055, "lat": 13.186062, "is_pano": false, "compass": 100.9, "bearing_to_school": 195.5, "heading_off_deg": 94.6, "looks_at_school": false, "dist_m": 206.3}, {"id": "503814595336242", "captured_at": 1719921673242, "lon": 12.30382, "lat": 13.186111, "is_pano": false, "compass": 101.4, "bearing_to_school": 188.3, "heading_off_deg": 86.9, "looks_at_school": false, "dist_m": 206.4}, {"id": "1020908213019099", "captured_at": 1719921676281, "lon": 12.304172, "lat": 13.186037, "is_pano": false, "compass": 100.7, "bearing_to_school": 199.1, "heading_off_deg": 98.4, "looks_at_school": false, "dist_m": 207.5}, {"id": "1018465975946331", "captured_at": 1719921672263, "lon": 12.303704, "lat": 13.186135, "is_pano": false, "compass": 102.3, "bearing_to_school": 184.8, "heading_off_deg": 82.5, "looks_at_school": false, "dist_m": 207.6}, {"id": "480516927848249", "captured_at": 1719921677224, "lon": 12.304283, "lat": 13.186015, "is_pano": false, "compass": 99.0, "bearing_to_school": 202.4, "heading_off_deg": 103.4, "looks_at_school": false, "dist_m": 209.5}]}}, {"type": "Feature", "geometry": {"type": "Point", "coordinates": [2.185105, 13.534458]}, "properties": {"name": "CSP La G\u00e9n\u00e9ration", "level": "Unknown", "iso": "NER", "source": "osm", "mly_count": 0, "mly_count_filtered": 0, "mly_last_year": null, "mly_close": false, "mly_top": []}}, {"type": "Feature", "geometry": {"type": "Point", "coordinates": [1.459409, 14.21385]}, "properties": {"name": "\u00c9cole Primaire Kabia 2", "level": "Unknown", "iso": "NER", "source": "osm", "mly_count": 0, "mly_count_filtered": 0, "mly_last_year": null, "mly_close": false, "mly_top": []}}, {"type": "Feature", "geometry": {"type": "Point", "coordinates": [8.173946, 13.41928]}, "properties": {"name": "CEG Gabaouri", "level": "Unknown", "iso": "NER", "source": "osm", "mly_count": 0, "mly_count_filtered": 0, "mly_last_year": null, "mly_close": false, "mly_top": []}}, {"type": "Feature", "geometry": {"type": "Point", "coordinates": [12.030651, 13.161254]}, "properties": {"name": "(unnamed)", "level": "Unknown", "iso": "NER", "source": "osm", "mly_count": 0, "mly_count_filtered": 0, "mly_last_year": null, "mly_close": false, "mly_top": []}}, {"type": "Feature", "geometry": {"type": "Point", "coordinates": [7.781078, 13.497721]}, "properties": {"name": "\u00c9cole primaire Bouya", "level": "Unknown", "iso": "NER", "source": "osm", "mly_count": 0, "mly_count_filtered": 0, "mly_last_year": null, "mly_close": false, "mly_top": []}}, {"type": "Feature", "geometry": {"type": "Point", "coordinates": [9.441645, 12.859311]}, "properties": {"name": "(unnamed)", "level": "Unknown", "iso": "NER", "source": "osm", "mly_count": 0, "mly_count_filtered": 0, "mly_last_year": null, "mly_close": false, "mly_top": []}}, {"type": "Feature", "geometry": {"type": "Point", "coordinates": [3.213953, 13.037557]}, "properties": {"name": "ADRA", "level": "Unknown", "iso": "NER", "source": "osm", "mly_count": 0, "mly_count_filtered": 0, "mly_last_year": null, "mly_close": false, "mly_top": []}}, {"type": "Feature", "geometry": {"type": "Point", "coordinates": [2.191284, 13.506407]}, "properties": {"name": "CSP \u00c9toile Brillante Du Matin", "level": "Unknown", "iso": "NER", "source": "osm", "mly_count": 0, "mly_count_filtered": 0, "mly_last_year": null, "mly_close": false, "mly_top": []}}, {"type": "Feature", "geometry": {"type": "Point", "coordinates": [0.955624, 14.004164]}, "properties": {"name": "(unnamed)", "level": "Unknown", "iso": "NER", "source": "osm", "mly_count": 0, "mly_count_filtered": 0, "mly_last_year": null, "mly_close": false, "mly_top": []}}, {"type": "Feature", "geometry": {"type": "Point", "coordinates": [2.135333, 13.50037]}, "properties": {"name": "Medersa", "level": "Unknown", "iso": "NER", "source": "osm", "mly_count": 20, "mly_count_filtered": 20, "mly_last_year": 2017, "mly_close": false, "mly_top": [{"id": "986322985473261", "captured_at": 1497971714820, "lon": 2.134356, "lat": 13.49871, "is_pano": false, "compass": 1.8, "bearing_to_school": 29.8, "heading_off_deg": 27.9, "looks_at_school": true, "dist_m": 212.7}, {"id": "218981706233178", "captured_at": 1497971706783, "lon": 2.134694, "lat": 13.498331, "is_pano": false, "compass": 350.9, "bearing_to_school": 16.9, "heading_off_deg": 26.1, "looks_at_school": true, "dist_m": 237.1}, {"id": "246155277287985", "captured_at": 1497964524795, "lon": 2.133807, "lat": 13.499379, "is_pano": false, "compass": 357.1, "bearing_to_school": 56.2, "heading_off_deg": 59.1, "looks_at_school": false, "dist_m": 198.4}, {"id": "509941910015029", "captured_at": 1497964527737, "lon": 2.133578, "lat": 13.499619, "is_pano": false, "compass": 303.8, "bearing_to_school": 66.2, "heading_off_deg": 122.4, "looks_at_school": false, "dist_m": 207.3}, {"id": "826071638268191", "captured_at": 1497968612153, "lon": 2.134076, "lat": 13.498949, "is_pano": false, "compass": 130.8, "bearing_to_school": 40.7, "heading_off_deg": 90.1, "looks_at_school": false, "dist_m": 208.4}, {"id": "833518364185254", "captured_at": 1497968611235, "lon": 2.13398, "lat": 13.499036, "is_pano": false, "compass": 130.0, "bearing_to_school": 44.6, "heading_off_deg": 85.4, "looks_at_school": false, "dist_m": 208.4}]}}, {"type": "Feature", "geometry": {"type": "Point", "coordinates": [7.186076, 13.536708]}, "properties": {"name": "\u00c9cole Primaire Dan Gamdji", "level": "Unknown", "iso": "NER", "source": "osm", "mly_count": 53, "mly_count_filtered": 53, "mly_last_year": 2025, "mly_close": false, "mly_top": [{"id": "1760739544453916", "captured_at": 1719819762142, "lon": 7.1845, "lat": 13.537754, "is_pano": false, "compass": 80.4, "bearing_to_school": 124.3, "heading_off_deg": 43.9, "looks_at_school": true, "dist_m": 206.3}, {"id": "2270419506654198", "captured_at": 1719819761165, "lon": 7.184402, "lat": 13.537739, "is_pano": false, "compass": 81.1, "bearing_to_school": 122.3, "heading_off_deg": 41.3, "looks_at_school": true, "dist_m": 214.3}, {"id": "2234324570248539", "captured_at": 1719819760112, "lon": 7.184294, "lat": 13.537724, "is_pano": false, "compass": 80.3, "bearing_to_school": 120.4, "heading_off_deg": 40.0, "looks_at_school": true, "dist_m": 223.4}, {"id": "838463024391165", "captured_at": 1719819759167, "lon": 7.184192, "lat": 13.53771, "is_pano": false, "compass": 80.1, "bearing_to_school": 118.7, "heading_off_deg": 38.6, "looks_at_school": true, "dist_m": 232.2}, {"id": "1375127919822722", "captured_at": 1719819758126, "lon": 7.184071, "lat": 13.537693, "is_pano": false, "compass": 80.7, "bearing_to_school": 116.8, "heading_off_deg": 36.1, "looks_at_school": true, "dist_m": 242.8}, {"id": "1002322188208639", "captured_at": 1719819782116, "lon": 7.185698, "lat": 13.537902, "is_pano": false, "compass": 80.7, "bearing_to_school": 162.9, "heading_off_deg": 82.2, "looks_at_school": false, "dist_m": 138.9}]}}, {"type": "Feature", "geometry": {"type": "Point", "coordinates": [2.108448, 13.481184]}, "properties": {"name": "CES Gawaye", "level": "Unknown", "iso": "NER", "source": "osm", "mly_count": 0, "mly_count_filtered": 0, "mly_last_year": null, "mly_close": false, "mly_top": []}}, {"type": "Feature", "geometry": {"type": "Point", "coordinates": [2.240466, 13.443642]}, "properties": {"name": "Al-Khal", "level": "Unknown", "iso": "NER", "source": "osm", "mly_count": 0, "mly_count_filtered": 0, "mly_last_year": null, "mly_close": false, "mly_top": []}}, {"type": "Feature", "geometry": {"type": "Point", "coordinates": [2.514165, 13.180516]}, "properties": {"name": "Ecole de Gobirko Banizoumbou", "level": "Primary", "iso": "NER", "source": "osm", "mly_count": 0, "mly_count_filtered": 0, "mly_last_year": null, "mly_close": false, "mly_top": []}}, {"type": "Feature", "geometry": {"type": "Point", "coordinates": [1.997524, 13.581657]}, "properties": {"name": "\u00c9cole Primaire Tondi Koirey 1", "level": "Unknown", "iso": "NER", "source": "osm", "mly_count": 0, "mly_count_filtered": 0, "mly_last_year": null, "mly_close": false, "mly_top": []}}, {"type": "Feature", "geometry": {"type": "Point", "coordinates": [2.074552, 13.536952]}, "properties": {"name": "CSP Lumi\u00eare de Vie", "level": "Unknown", "iso": "NER", "source": "osm", "mly_count": 44, "mly_count_filtered": 44, "mly_last_year": 2017, "mly_close": false, "mly_top": [{"id": "2810622432586753", "captured_at": 1478761889343, "lon": 2.076028, "lat": 13.538175, "is_pano": false, "compass": 143.7, "bearing_to_school": 229.6, "heading_off_deg": 85.9, "looks_at_school": false, "dist_m": 209.7}, {"id": "227717852482908", "captured_at": 1478761887388, "lon": 2.075912, "lat": 13.538315, "is_pano": false, "compass": 143.7, "bearing_to_school": 224.1, "heading_off_deg": 80.4, "looks_at_school": false, "dist_m": 211.1}, {"id": "467310954341322", "captured_at": 1478761891270, "lon": 2.076144, "lat": 13.538074, "is_pano": false, "compass": 140.4, "bearing_to_school": 234.1, "heading_off_deg": 93.7, "looks_at_school": false, "dist_m": 212.6}, {"id": "159344222786938", "captured_at": 1478761893311, "lon": 2.076233, "lat": 13.537976, "is_pano": false, "compass": 140.7, "bearing_to_school": 237.9, "heading_off_deg": 97.3, "looks_at_school": false, "dist_m": 214.4}, {"id": "467587951204290", "captured_at": 1478761885325, "lon": 2.075792, "lat": 13.538466, "is_pano": false, "compass": 144.1, "bearing_to_school": 218.5, "heading_off_deg": 74.4, "looks_at_school": false, "dist_m": 215.3}, {"id": "279500953838755", "captured_at": 1478761895342, "lon": 2.076311, "lat": 13.537889, "is_pano": false, "compass": 140.0, "bearing_to_school": 241.3, "heading_off_deg": 101.3, "looks_at_school": false, "dist_m": 216.8}]}}, {"type": "Feature", "geometry": {"type": "Point", "coordinates": [7.097414, 13.50542]}, "properties": {"name": "CSP DARASSI", "level": "Unknown", "iso": "NER", "source": "osm", "mly_count": 0, "mly_count_filtered": 0, "mly_last_year": null, "mly_close": false, "mly_top": []}}, {"type": "Feature", "geometry": {"type": "Point", "coordinates": [5.268717, 13.785077]}, "properties": {"name": "CSP KADADE", "level": "Unknown", "iso": "NER", "source": "osm", "mly_count": 0, "mly_count_filtered": 0, "mly_last_year": null, "mly_close": false, "mly_top": []}}, {"type": "Feature", "geometry": {"type": "Point", "coordinates": [9.517666, 13.69649]}, "properties": {"name": "(unnamed)", "level": "Unknown", "iso": "NER", "source": "osm", "mly_count": 0, "mly_count_filtered": 0, "mly_last_year": null, "mly_close": false, "mly_top": []}}, {"type": "Feature", "geometry": {"type": "Point", "coordinates": [7.095159, 13.620846]}, "properties": {"name": "(unnamed)", "level": "Unknown", "iso": "NER", "source": "osm", "mly_count": 0, "mly_count_filtered": 0, "mly_last_year": null, "mly_close": false, "mly_top": []}}, {"type": "Feature", "geometry": {"type": "Point", "coordinates": [5.337193, 16.520134]}, "properties": {"name": "(unnamed)", "level": "Unknown", "iso": "NER", "source": "osm", "mly_count": 0, "mly_count_filtered": 0, "mly_last_year": null, "mly_close": false, "mly_top": []}}, {"type": "Feature", "geometry": {"type": "Point", "coordinates": [2.0936, 13.492367]}, "properties": {"name": "\u00c9cole Primaire Rive-Droite 1", "level": "Unknown", "iso": "NER", "source": "osm", "mly_count": 0, "mly_count_filtered": 0, "mly_last_year": null, "mly_close": false, "mly_top": []}}, {"type": "Feature", "geometry": {"type": "Point", "coordinates": [12.876588, 13.929813]}, "properties": {"name": "(unnamed)", "level": "Unknown", "iso": "NER", "source": "osm", "mly_count": 0, "mly_count_filtered": 0, "mly_last_year": null, "mly_close": false, "mly_top": []}}, {"type": "Feature", "geometry": {"type": "Point", "coordinates": [7.475196, 13.593828]}, "properties": {"name": "\u00c9cole Primaire Guidan Bawa", "level": "Unknown", "iso": "NER", "source": "osm", "mly_count": 0, "mly_count_filtered": 0, "mly_last_year": null, "mly_close": false, "mly_top": []}}, {"type": "Feature", "geometry": {"type": "Point", "coordinates": [2.184086, 13.515608]}, "properties": {"name": "Godiya School", "level": "Unknown", "iso": "NER", "source": "osm", "mly_count": 0, "mly_count_filtered": 0, "mly_last_year": null, "mly_close": false, "mly_top": []}}, {"type": "Feature", "geometry": {"type": "Point", "coordinates": [2.094412, 13.490288]}, "properties": {"name": "Complexe Scolaire Priv\u00e9 Mossi", "level": "Unknown", "iso": "NER", "source": "osm", "mly_count": 0, "mly_count_filtered": 0, "mly_last_year": null, "mly_close": false, "mly_top": []}}, {"type": "Feature", "geometry": {"type": "Point", "coordinates": [7.138284, 13.487136]}, "properties": {"name": "CSP Balla Kalto", "level": "Unknown", "iso": "NER", "source": "osm", "mly_count": 0, "mly_count_filtered": 0, "mly_last_year": null, "mly_close": false, "mly_top": []}}, {"type": "Feature", "geometry": {"type": "Point", "coordinates": [2.094799, 13.484314]}, "properties": {"name": "\u00c9cole Tassikonou", "level": "Unknown", "iso": "NER", "source": "osm", "mly_count": 0, "mly_count_filtered": 0, "mly_last_year": null, "mly_close": false, "mly_top": []}}, {"type": "Feature", "geometry": {"type": "Point", "coordinates": [2.098168, 13.488113]}, "properties": {"name": "Medersa Coranique", "level": "Unknown", "iso": "NER", "source": "osm", "mly_count": 0, "mly_count_filtered": 0, "mly_last_year": null, "mly_close": false, "mly_top": []}}, {"type": "Feature", "geometry": {"type": "Point", "coordinates": [5.056019, 13.980351]}, "properties": {"name": "(unnamed)", "level": "Unknown", "iso": "NER", "source": "osm", "mly_count": 0, "mly_count_filtered": 0, "mly_last_year": null, "mly_close": false, "mly_top": []}}, {"type": "Feature", "geometry": {"type": "Point", "coordinates": [1.570063, 13.85454]}, "properties": {"name": "Ecole primaire", "level": "Unknown", "iso": "NER", "source": "osm", "mly_count": 83, "mly_count_filtered": 83, "mly_last_year": 2025, "mly_close": false, "mly_top": [{"id": "659057173726519", "captured_at": 1741355240001, "lon": 1.568512, "lat": 13.854318, "is_pano": false, "compass": 175.2, "bearing_to_school": 81.6, "heading_off_deg": 93.6, "looks_at_school": false, "dist_m": 169.2}, {"id": "1378225369975776", "captured_at": 1741355238817, "lon": 1.568503, "lat": 13.854377, "is_pano": false, "compass": 174.9, "bearing_to_school": 83.8, "heading_off_deg": 91.1, "looks_at_school": false, "dist_m": 169.4}, {"id": "593983746991890", "captured_at": 1741355240905, "lon": 1.568521, "lat": 13.854248, "is_pano": false, "compass": 174.8, "bearing_to_school": 79.0, "heading_off_deg": 95.8, "looks_at_school": false, "dist_m": 169.6}, {"id": "1183650910103821", "captured_at": 1741355237879, "lon": 1.568493, "lat": 13.854429, "is_pano": false, "compass": 175.2, "bearing_to_school": 85.8, "heading_off_deg": 89.4, "looks_at_school": false, "dist_m": 169.9}, {"id": "1288360922260326", "captured_at": 1741355241749, "lon": 1.568531, "lat": 13.854179, "is_pano": false, "compass": 174.8, "bearing_to_school": 76.4, "heading_off_deg": 98.4, "looks_at_school": false, "dist_m": 170.2}, {"id": "731614495887859", "captured_at": 1741355236897, "lon": 1.568484, "lat": 13.854472, "is_pano": false, "compass": 175.6, "bearing_to_school": 87.5, "heading_off_deg": 88.1, "looks_at_school": false, "dist_m": 170.6}]}}, {"type": "Feature", "geometry": {"type": "Point", "coordinates": [2.201859, 13.531271]}, "properties": {"name": "CSP La G\u00e9n\u00e9ration Saga Gorou", "level": "Unknown", "iso": "NER", "source": "osm", "mly_count": 0, "mly_count_filtered": 0, "mly_last_year": null, "mly_close": false, "mly_top": []}}, {"type": "Feature", "geometry": {"type": "Point", "coordinates": [7.124332, 13.488989]}, "properties": {"name": "Madrasatu Muril Islam", "level": "Unknown", "iso": "NER", "source": "osm", "mly_count": 0, "mly_count_filtered": 0, "mly_last_year": null, "mly_close": false, "mly_top": []}}, {"type": "Feature", "geometry": {"type": "Point", "coordinates": [2.735476, 13.13731]}, "properties": {"name": "Ecole Primaire de Diawando 1", "level": "Primary", "iso": "NER", "source": "osm", "mly_count": 0, "mly_count_filtered": 0, "mly_last_year": null, "mly_close": false, "mly_top": []}}, {"type": "Feature", "geometry": {"type": "Point", "coordinates": [2.826108, 13.209621]}, "properties": {"name": "Ecole de Boula Korgui", "level": "Primary", "iso": "NER", "source": "osm", "mly_count": 0, "mly_count_filtered": 0, "mly_last_year": null, "mly_close": false, "mly_top": []}}, {"type": "Feature", "geometry": {"type": "Point", "coordinates": [2.078084, 13.578492]}, "properties": {"name": "Lyc\u00e9e Alzuran", "level": "Unknown", "iso": "NER", "source": "osm", "mly_count": 0, "mly_count_filtered": 0, "mly_last_year": null, "mly_close": false, "mly_top": []}}, {"type": "Feature", "geometry": {"type": "Point", "coordinates": [9.358211, 13.480245]}, "properties": {"name": "(unnamed)", "level": "Unknown", "iso": "NER", "source": "osm", "mly_count": 0, "mly_count_filtered": 0, "mly_last_year": null, "mly_close": false, "mly_top": []}}, {"type": "Feature", "geometry": {"type": "Point", "coordinates": [2.091061, 13.607662]}, "properties": {"name": "\u00c9cole Normale", "level": "Unknown", "iso": "NER", "source": "osm", "mly_count": 1, "mly_count_filtered": 1, "mly_last_year": 2018, "mly_close": false, "mly_top": [{"id": "941738326639165", "captured_at": 1531388178400, "lon": 2.09335, "lat": 13.607635, "is_pano": false, "compass": 0.0, "bearing_to_school": 270.7, "heading_off_deg": 89.3, "looks_at_school": false, "dist_m": 247.4}]}}, {"type": "Feature", "geometry": {"type": "Point", "coordinates": [11.335424, 13.982561]}, "properties": {"name": "Medersa de Boutti", "level": "Unknown", "iso": "NER", "source": "osm", "mly_count": 0, "mly_count_filtered": 0, "mly_last_year": null, "mly_close": false, "mly_top": []}}, {"type": "Feature", "geometry": {"type": "Point", "coordinates": [7.192013, 13.651262]}, "properties": {"name": "(unnamed)", "level": "Unknown", "iso": "NER", "source": "osm", "mly_count": 0, "mly_count_filtered": 0, "mly_last_year": null, "mly_close": false, "mly_top": []}}, {"type": "Feature", "geometry": {"type": "Point", "coordinates": [2.125452, 13.517856]}, "properties": {"name": "ETEC", "level": "Unknown", "iso": "NER", "source": "osm", "mly_count": 10, "mly_count_filtered": 10, "mly_last_year": 2018, "mly_close": true, "mly_top": [{"id": "468732724342065", "captured_at": 1536229196879, "lon": 2.125387, "lat": 13.518427, "is_pano": false, "compass": 132.6, "bearing_to_school": 173.6, "heading_off_deg": 41.0, "looks_at_school": true, "dist_m": 63.8}, {"id": "513773666662372", "captured_at": 1536229190630, "lon": 2.125229, "lat": 13.518496, "is_pano": false, "compass": 146.9, "bearing_to_school": 161.3, "heading_off_deg": 14.5, "looks_at_school": true, "dist_m": 75.2}, {"id": "3952173151543191", "captured_at": 1536229162216, "lon": 2.124404, "lat": 13.518928, "is_pano": false, "compass": 116.2, "bearing_to_school": 136.5, "heading_off_deg": 20.3, "looks_at_school": true, "dist_m": 164.5}, {"id": "888510762053512", "captured_at": 1536229139586, "lon": 2.123783, "lat": 13.519229, "is_pano": false, "compass": 119.5, "bearing_to_school": 130.2, "heading_off_deg": 10.8, "looks_at_school": true, "dist_m": 236.4}, {"id": "1759481910916558", "captured_at": 1536229218873, "lon": 2.12585, "lat": 13.5182, "is_pano": false, "compass": 103.0, "bearing_to_school": 228.3, "heading_off_deg": 125.3, "looks_at_school": false, "dist_m": 57.5}, {"id": "463241534732845", "captured_at": 1536229221766, "lon": 2.1259, "lat": 13.518182, "is_pano": false, "compass": 99.9, "bearing_to_school": 233.2, "heading_off_deg": 133.3, "looks_at_school": false, "dist_m": 60.6}]}}, {"type": "Feature", "geometry": {"type": "Point", "coordinates": [2.484139, 13.68161]}, "properties": {"name": "(unnamed)", "level": "Unknown", "iso": "NER", "source": "osm", "mly_count": 0, "mly_count_filtered": 0, "mly_last_year": null, "mly_close": false, "mly_top": []}}, {"type": "Feature", "geometry": {"type": "Point", "coordinates": [2.174012, 13.506992]}, "properties": {"name": "\u00c9cole des Orphelins", "level": "Unknown", "iso": "NER", "source": "osm", "mly_count": 0, "mly_count_filtered": 0, "mly_last_year": null, "mly_close": false, "mly_top": []}}, {"type": "Feature", "geometry": {"type": "Point", "coordinates": [9.44948, 12.828073]}, "properties": {"name": "(unnamed)", "level": "Unknown", "iso": "NER", "source": "osm", "mly_count": 0, "mly_count_filtered": 0, "mly_last_year": null, "mly_close": false, "mly_top": []}}, {"type": "Feature", "geometry": {"type": "Point", "coordinates": [2.175649, 13.536212]}, "properties": {"name": "SMA Fipso", "level": "Unknown", "iso": "NER", "source": "osm", "mly_count": 0, "mly_count_filtered": 0, "mly_last_year": null, "mly_close": false, "mly_top": []}}, {"type": "Feature", "geometry": {"type": "Point", "coordinates": [1.462745, 14.203829]}, "properties": {"name": "(unnamed)", "level": "Unknown", "iso": "NER", "source": "osm", "mly_count": 0, "mly_count_filtered": 0, "mly_last_year": null, "mly_close": false, "mly_top": []}}, {"type": "Feature", "geometry": {"type": "Point", "coordinates": [2.07817, 13.566225]}, "properties": {"name": "CSP Bakaye", "level": "Unknown", "iso": "NER", "source": "osm", "mly_count": 0, "mly_count_filtered": 0, "mly_last_year": null, "mly_close": false, "mly_top": []}}, {"type": "Feature", "geometry": {"type": "Point", "coordinates": [3.950186, 13.914011]}, "properties": {"name": "Ecole Primaire de Maibizaza", "level": "Unknown", "iso": "NER", "source": "osm", "mly_count": 0, "mly_count_filtered": 0, "mly_last_year": null, "mly_close": false, "mly_top": []}}, {"type": "Feature", "geometry": {"type": "Point", "coordinates": [9.294726, 13.886701]}, "properties": {"name": "(unnamed)", "level": "Unknown", "iso": "NER", "source": "osm", "mly_count": 0, "mly_count_filtered": 0, "mly_last_year": null, "mly_close": false, "mly_top": []}}, {"type": "Feature", "geometry": {"type": "Point", "coordinates": [2.147795, 13.465013]}, "properties": {"name": "Complexe Scolaire Priv\u00e9e Cheick Anta Diop", "level": "Unknown", "iso": "NER", "source": "osm", "mly_count": 0, "mly_count_filtered": 0, "mly_last_year": null, "mly_close": false, "mly_top": []}}, {"type": "Feature", "geometry": {"type": "Point", "coordinates": [2.131443, 13.557619]}, "properties": {"name": "\u00c9cole Primaire Tarmou", "level": "Unknown", "iso": "NER", "source": "osm", "mly_count": 0, "mly_count_filtered": 0, "mly_last_year": null, "mly_close": false, "mly_top": []}}, {"type": "Feature", "geometry": {"type": "Point", "coordinates": [7.461204, 13.686584]}, "properties": {"name": "\u00c9cole primaire Zongo Bawal\u00e9", "level": "Unknown", "iso": "NER", "source": "osm", "mly_count": 0, "mly_count_filtered": 0, "mly_last_year": null, "mly_close": false, "mly_top": []}}, {"type": "Feature", "geometry": {"type": "Point", "coordinates": [1.92851, 13.599879]}, "properties": {"name": "(unnamed)", "level": "Unknown", "iso": "NER", "source": "osm", "mly_count": 0, "mly_count_filtered": 0, "mly_last_year": null, "mly_close": false, "mly_top": []}}, {"type": "Feature", "geometry": {"type": "Point", "coordinates": [2.08653, 13.509237]}, "properties": {"name": "Ecole Primaire Nogr\u00e9", "level": "Unknown", "iso": "NER", "source": "osm", "mly_count": 1, "mly_count_filtered": 1, "mly_last_year": 2017, "mly_close": true, "mly_top": [{"id": "2987455334825124", "captured_at": 1502272389686, "lon": 2.086614, "lat": 13.509014, "is_pano": false, "compass": 0.0, "bearing_to_school": 340.0, "heading_off_deg": 20.0, "looks_at_school": true, "dist_m": 26.4}]}}, {"type": "Feature", "geometry": {"type": "Point", "coordinates": [8.862041, 13.741159]}, "properties": {"name": "(unnamed)", "level": "Unknown", "iso": "NER", "source": "osm", "mly_count": 0, "mly_count_filtered": 0, "mly_last_year": null, "mly_close": false, "mly_top": []}}, {"type": "Feature", "geometry": {"type": "Point", "coordinates": [12.60733, 13.326946]}, "properties": {"name": "CEG Mohamed Ek Kanemi", "level": "Unknown", "iso": "NER", "source": "osm", "mly_count": 0, "mly_count_filtered": 0, "mly_last_year": null, "mly_close": false, "mly_top": []}}, {"type": "Feature", "geometry": {"type": "Point", "coordinates": [5.246855, 13.803758]}, "properties": {"name": "C S P Algo", "level": "Unknown", "iso": "NER", "source": "osm", "mly_count": 0, "mly_count_filtered": 0, "mly_last_year": null, "mly_close": false, "mly_top": []}}, {"type": "Feature", "geometry": {"type": "Point", "coordinates": [9.161023, 13.546604]}, "properties": {"name": "(unnamed)", "level": "Unknown", "iso": "NER", "source": "osm", "mly_count": 0, "mly_count_filtered": 0, "mly_last_year": null, "mly_close": false, "mly_top": []}}, {"type": "Feature", "geometry": {"type": "Point", "coordinates": [0.754286, 14.310237]}, "properties": {"name": "(unnamed)", "level": "Unknown", "iso": "NER", "source": "osm", "mly_count": 0, "mly_count_filtered": 0, "mly_last_year": null, "mly_close": false, "mly_top": []}}, {"type": "Feature", "geometry": {"type": "Point", "coordinates": [12.422311, 13.324553]}, "properties": {"name": "(unnamed)", "level": "Unknown", "iso": "NER", "source": "osm", "mly_count": 0, "mly_count_filtered": 0, "mly_last_year": null, "mly_close": false, "mly_top": []}}, {"type": "Feature", "geometry": {"type": "Point", "coordinates": [8.995266, 13.812363]}, "properties": {"name": "Ecole Garin Malam", "level": "Unknown", "iso": "NER", "source": "osm", "mly_count": 0, "mly_count_filtered": 0, "mly_last_year": null, "mly_close": false, "mly_top": []}}, {"type": "Feature", "geometry": {"type": "Point", "coordinates": [12.601561, 13.317736]}, "properties": {"name": "Centre de Formation Professionnelle et Technique de Diffa", "level": "Unknown", "iso": "NER", "source": "osm", "mly_count": 0, "mly_count_filtered": 0, "mly_last_year": null, "mly_close": false, "mly_top": []}}, {"type": "Feature", "geometry": {"type": "Point", "coordinates": [12.610696, 13.323703]}, "properties": {"name": "CSP Kamen Bornou", "level": "Unknown", "iso": "NER", "source": "osm", "mly_count": 0, "mly_count_filtered": 0, "mly_last_year": null, "mly_close": false, "mly_top": []}}, {"type": "Feature", "geometry": {"type": "Point", "coordinates": [4.030239, 13.632099]}, "properties": {"name": "(unnamed)", "level": "Unknown", "iso": "NER", "source": "osm", "mly_count": 0, "mly_count_filtered": 0, "mly_last_year": null, "mly_close": false, "mly_top": []}}, {"type": "Feature", "geometry": {"type": "Point", "coordinates": [7.001989, 13.068293]}, "properties": {"name": "(unnamed)", "level": "Unknown", "iso": "NER", "source": "osm", "mly_count": 0, "mly_count_filtered": 0, "mly_last_year": null, "mly_close": false, "mly_top": []}}, {"type": "Feature", "geometry": {"type": "Point", "coordinates": [2.082451, 13.579504]}, "properties": {"name": "Route Tillaberi", "level": "Unknown", "iso": "NER", "source": "osm", "mly_count": 0, "mly_count_filtered": 0, "mly_last_year": null, "mly_close": false, "mly_top": []}}, {"type": "Feature", "geometry": {"type": "Point", "coordinates": [0.848062, 14.908239]}, "properties": {"name": "(unnamed)", "level": "Unknown", "iso": "NER", "source": "osm", "mly_count": 0, "mly_count_filtered": 0, "mly_last_year": null, "mly_close": false, "mly_top": []}}, {"type": "Feature", "geometry": {"type": "Point", "coordinates": [13.100996, 14.254851]}, "properties": {"name": "(unnamed)", "level": "Unknown", "iso": "NER", "source": "osm", "mly_count": 0, "mly_count_filtered": 0, "mly_last_year": null, "mly_close": false, "mly_top": []}}, {"type": "Feature", "geometry": {"type": "Point", "coordinates": [5.515289, 14.694361]}, "properties": {"name": "Centre Islamique Mouhamaddiya de Samo", "level": "Unknown", "iso": "NER", "source": "osm", "mly_count": 0, "mly_count_filtered": 0, "mly_last_year": null, "mly_close": false, "mly_top": []}}, {"type": "Feature", "geometry": {"type": "Point", "coordinates": [2.37242, 13.158316]}, "properties": {"name": "(unnamed)", "level": "Unknown", "iso": "NER", "source": "osm", "mly_count": 0, "mly_count_filtered": 0, "mly_last_year": null, "mly_close": false, "mly_top": []}}, {"type": "Feature", "geometry": {"type": "Point", "coordinates": [2.187319, 13.539558]}, "properties": {"name": "(unnamed)", "level": "Unknown", "iso": "NER", "source": "osm", "mly_count": 0, "mly_count_filtered": 0, "mly_last_year": null, "mly_close": false, "mly_top": []}}, {"type": "Feature", "geometry": {"type": "Point", "coordinates": [9.230273, 12.856606]}, "properties": {"name": "(unnamed)", "level": "Unknown", "iso": "NER", "source": "osm", "mly_count": 0, "mly_count_filtered": 0, "mly_last_year": null, "mly_close": false, "mly_top": []}}, {"type": "Feature", "geometry": {"type": "Point", "coordinates": [2.084452, 13.494725]}, "properties": {"name": "\u00c9cole Primaire Dan Dicko Dan Koulodo", "level": "Unknown", "iso": "NER", "source": "osm", "mly_count": 0, "mly_count_filtered": 0, "mly_last_year": null, "mly_close": false, "mly_top": []}}, {"type": "Feature", "geometry": {"type": "Point", "coordinates": [5.668968, 14.830547]}, "properties": {"name": "(unnamed)", "level": "Unknown", "iso": "NER", "source": "osm", "mly_count": 0, "mly_count_filtered": 0, "mly_last_year": null, "mly_close": false, "mly_top": []}}, {"type": "Feature", "geometry": {"type": "Point", "coordinates": [2.062223, 13.534225]}, "properties": {"name": "Medersa Publique de Goudel", "level": "Unknown", "iso": "NER", "source": "osm", "mly_count": 0, "mly_count_filtered": 0, "mly_last_year": null, "mly_close": false, "mly_top": []}}, {"type": "Feature", "geometry": {"type": "Point", "coordinates": [12.422273, 13.18656]}, "properties": {"name": "(unnamed)", "level": "Unknown", "iso": "NER", "source": "osm", "mly_count": 0, "mly_count_filtered": 0, "mly_last_year": null, "mly_close": false, "mly_top": []}}, {"type": "Feature", "geometry": {"type": "Point", "coordinates": [2.750561, 13.410235]}, "properties": {"name": "(unnamed)", "level": "Unknown", "iso": "NER", "source": "osm", "mly_count": 0, "mly_count_filtered": 0, "mly_last_year": null, "mly_close": false, "mly_top": []}}, {"type": "Feature", "geometry": {"type": "Point", "coordinates": [2.134014, 13.600857]}, "properties": {"name": "Bossey Bangou", "level": "Unknown", "iso": "NER", "source": "osm", "mly_count": 0, "mly_count_filtered": 0, "mly_last_year": null, "mly_close": false, "mly_top": []}}, {"type": "Feature", "geometry": {"type": "Point", "coordinates": [7.110887, 13.480147]}, "properties": {"name": "CSP Lako", "level": "Unknown", "iso": "NER", "source": "osm", "mly_count": 51, "mly_count_filtered": 51, "mly_last_year": 2023, "mly_close": true, "mly_top": [{"id": "473825944950505", "captured_at": 1673788268801, "lon": 7.109874, "lat": 13.480767, "is_pano": false, "compass": 80.4, "bearing_to_school": 122.2, "heading_off_deg": 41.8, "looks_at_school": true, "dist_m": 129.4}, {"id": "3628685017362069", "captured_at": 1673788267837, "lon": 7.109766, "lat": 13.480748, "is_pano": false, "compass": 80.1, "bearing_to_school": 118.8, "heading_off_deg": 38.7, "looks_at_school": true, "dist_m": 138.4}, {"id": "118558277634635", "captured_at": 1673788266871, "lon": 7.109656, "lat": 13.480728, "is_pano": false, "compass": 79.7, "bearing_to_school": 115.9, "heading_off_deg": 36.2, "looks_at_school": true, "dist_m": 147.9}, {"id": "938542160405821", "captured_at": 1673788265672, "lon": 7.109522, "lat": 13.4807, "is_pano": false, "compass": 79.5, "bearing_to_school": 112.6, "heading_off_deg": 33.2, "looks_at_school": true, "dist_m": 159.9}, {"id": "3206833672940940", "captured_at": 1673788264706, "lon": 7.109398, "lat": 13.480676, "is_pano": false, "compass": 79.8, "bearing_to_school": 110.0, "heading_off_deg": 30.2, "looks_at_school": true, "dist_m": 171.5}, {"id": "1663901544060025", "captured_at": 1673788263740, "lon": 7.10927, "lat": 13.48065, "is_pano": false, "compass": 78.9, "bearing_to_school": 107.7, "heading_off_deg": 28.8, "looks_at_school": true, "dist_m": 183.6}]}}, {"type": "Feature", "geometry": {"type": "Point", "coordinates": [3.987717, 13.831872]}, "properties": {"name": "(unnamed)", "level": "Unknown", "iso": "NER", "source": "osm", "mly_count": 0, "mly_count_filtered": 0, "mly_last_year": null, "mly_close": false, "mly_top": []}}, {"type": "Feature", "geometry": {"type": "Point", "coordinates": [9.433711, 13.517122]}, "properties": {"name": "(unnamed)", "level": "Unknown", "iso": "NER", "source": "osm", "mly_count": 0, "mly_count_filtered": 0, "mly_last_year": null, "mly_close": false, "mly_top": []}}, {"type": "Feature", "geometry": {"type": "Point", "coordinates": [2.105799, 13.518946]}, "properties": {"name": "Leg Issa Koromb\u00e9", "level": "Unknown", "iso": "NER", "source": "osm", "mly_count": 65, "mly_count_filtered": 65, "mly_last_year": 2019, "mly_close": true, "mly_top": [{"id": "997503780785460", "captured_at": 1525711131889, "lon": 2.106802, "lat": 13.517913, "is_pano": false, "compass": 1.1, "bearing_to_school": 316.7, "heading_off_deg": 44.5, "looks_at_school": true, "dist_m": 158.0}, {"id": "874337546483104", "captured_at": 1571999577951, "lon": 2.104794, "lat": 13.517754, "is_pano": false, "compass": 357.0, "bearing_to_school": 39.3, "heading_off_deg": 42.4, "looks_at_school": true, "dist_m": 171.4}, {"id": "898163107428206", "captured_at": 1478518692340, "lon": 2.10479, "lat": 13.517727, "is_pano": false, "compass": 1.0, "bearing_to_school": 38.8, "heading_off_deg": 37.8, "looks_at_school": true, "dist_m": 174.0}, {"id": "156239736432542", "captured_at": 1478518690348, "lon": 2.104803, "lat": 13.517565, "is_pano": false, "compass": 358.8, "bearing_to_school": 35.0, "heading_off_deg": 36.2, "looks_at_school": true, "dist_m": 187.5}, {"id": "165985845529282", "captured_at": 1571999573980, "lon": 2.104813, "lat": 13.517538, "is_pano": false, "compass": 359.8, "bearing_to_school": 34.2, "heading_off_deg": 34.4, "looks_at_school": true, "dist_m": 189.4}, {"id": "2587089718103763", "captured_at": 1478518688255, "lon": 2.104812, "lat": 13.517397, "is_pano": false, "compass": 357.7, "bearing_to_school": 31.8, "heading_off_deg": 34.1, "looks_at_school": true, "dist_m": 202.7}]}}, {"type": "Feature", "geometry": {"type": "Point", "coordinates": [8.99564, 13.750796]}, "properties": {"name": "(unnamed)", "level": "Unknown", "iso": "NER", "source": "osm", "mly_count": 0, "mly_count_filtered": 0, "mly_last_year": null, "mly_close": false, "mly_top": []}}, {"type": "Feature", "geometry": {"type": "Point", "coordinates": [2.120599, 13.568952]}, "properties": {"name": "Alpha", "level": "Unknown", "iso": "NER", "source": "osm", "mly_count": 0, "mly_count_filtered": 0, "mly_last_year": null, "mly_close": false, "mly_top": []}}, {"type": "Feature", "geometry": {"type": "Point", "coordinates": [5.251725, 13.799087]}, "properties": {"name": "GOURAMA 3", "level": "Unknown", "iso": "NER", "source": "osm", "mly_count": 35, "mly_count_filtered": 35, "mly_last_year": 2021, "mly_close": false, "mly_top": [{"id": "847420119203727", "captured_at": 1611997029542, "lon": 5.253322, "lat": 13.797692, "is_pano": false, "compass": 356.5, "bearing_to_school": 312.0, "heading_off_deg": 44.5, "looks_at_school": true, "dist_m": 232.0}, {"id": "220236306215494", "captured_at": 1611997026373, "lon": 5.2533, "lat": 13.797493, "is_pano": false, "compass": 356.1, "bearing_to_school": 316.2, "heading_off_deg": 40.0, "looks_at_school": true, "dist_m": 245.6}, {"id": "514067033290204", "captured_at": 1612175799433, "lon": 5.253181, "lat": 13.799492, "is_pano": false, "compass": 334.5, "bearing_to_school": 254.0, "heading_off_deg": 80.5, "looks_at_school": false, "dist_m": 163.5}, {"id": "566628417632286", "captured_at": 1611997063449, "lon": 5.253216, "lat": 13.799359, "is_pano": false, "compass": 359.2, "bearing_to_school": 259.4, "heading_off_deg": 99.8, "looks_at_school": false, "dist_m": 163.9}, {"id": "397480314602415", "captured_at": 1612175802450, "lon": 5.253125, "lat": 13.799671, "is_pano": false, "compass": 339.5, "bearing_to_school": 246.8, "heading_off_deg": 92.7, "looks_at_school": false, "dist_m": 164.5}, {"id": "223055359212371", "captured_at": 1612175792509, "lon": 5.253236, "lat": 13.799294, "is_pano": false, "compass": 343.9, "bearing_to_school": 262.0, "heading_off_deg": 81.9, "looks_at_school": false, "dist_m": 164.8}]}}, {"type": "Feature", "geometry": {"type": "Point", "coordinates": [1.797001, 13.128001]}, "properties": {"name": "(unnamed)", "level": "Unknown", "iso": "NER", "source": "osm", "mly_count": 0, "mly_count_filtered": 0, "mly_last_year": null, "mly_close": false, "mly_top": []}}, {"type": "Feature", "geometry": {"type": "Point", "coordinates": [9.413403, 12.913832]}, "properties": {"name": "(unnamed)", "level": "Unknown", "iso": "NER", "source": "osm", "mly_count": 0, "mly_count_filtered": 0, "mly_last_year": null, "mly_close": false, "mly_top": []}}, {"type": "Feature", "geometry": {"type": "Point", "coordinates": [0.738277, 14.00617]}, "properties": {"name": "CES Franco-Arabe T\u00e9ra", "level": "Unknown", "iso": "NER", "source": "osm", "mly_count": 0, "mly_count_filtered": 0, "mly_last_year": null, "mly_close": false, "mly_top": []}}, {"type": "Feature", "geometry": {"type": "Point", "coordinates": [0.746418, 14.333233]}, "properties": {"name": "(unnamed)", "level": "Unknown", "iso": "NER", "source": "osm", "mly_count": 0, "mly_count_filtered": 0, "mly_last_year": null, "mly_close": false, "mly_top": []}}, {"type": "Feature", "geometry": {"type": "Point", "coordinates": [3.465355, 11.896154]}, "properties": {"name": "coll\u00e9ge", "level": "Unknown", "iso": "NER", "source": "osm", "mly_count": 24, "mly_count_filtered": 24, "mly_last_year": 2023, "mly_close": false, "mly_top": [{"id": "1521073302033984", "captured_at": 1692197185017, "lon": 3.464225, "lat": 11.897237, "is_pano": false, "compass": 34.4, "bearing_to_school": 134.4, "heading_off_deg": 100.0, "looks_at_school": false, "dist_m": 172.1}, {"id": "129218313545911", "captured_at": 1692197186093, "lon": 3.464264, "lat": 11.897276, "is_pano": false, "compass": 34.2, "bearing_to_school": 136.4, "heading_off_deg": 102.2, "looks_at_school": false, "dist_m": 172.2}, {"id": "3392090721054610", "captured_at": 1692197184001, "lon": 3.464193, "lat": 11.897206, "is_pano": false, "compass": 34.2, "bearing_to_school": 132.8, "heading_off_deg": 98.5, "looks_at_school": false, "dist_m": 172.2}, {"id": "1626396271189173", "captured_at": 1692197182021, "lon": 3.464152, "lat": 11.897165, "is_pano": false, "compass": 33.1, "bearing_to_school": 130.7, "heading_off_deg": 97.6, "looks_at_school": false, "dist_m": 172.5}, {"id": "2108417362834845", "captured_at": 1692197187009, "lon": 3.464303, "lat": 11.897318, "is_pano": false, "compass": 34.3, "bearing_to_school": 138.5, "heading_off_deg": 104.2, "looks_at_school": false, "dist_m": 172.7}, {"id": "1618324858658937", "captured_at": 1692197188019, "lon": 3.464354, "lat": 11.89737, "is_pano": false, "compass": 34.4, "bearing_to_school": 141.2, "heading_off_deg": 106.8, "looks_at_school": false, "dist_m": 173.6}]}}, {"type": "Feature", "geometry": {"type": "Point", "coordinates": [2.137002, 13.501563]}, "properties": {"name": "(unnamed)", "level": "Unknown", "iso": "NER", "source": "osm", "mly_count": 0, "mly_count_filtered": 0, "mly_last_year": null, "mly_close": false, "mly_top": []}}, {"type": "Feature", "geometry": {"type": "Point", "coordinates": [3.080898, 12.929096]}, "properties": {"name": "(unnamed)", "level": "Unknown", "iso": "NER", "source": "osm", "mly_count": 0, "mly_count_filtered": 0, "mly_last_year": null, "mly_close": false, "mly_top": []}}, {"type": "Feature", "geometry": {"type": "Point", "coordinates": [2.133385, 13.563368]}, "properties": {"name": "\u00c9cole Primaire Cit\u00e9 des D\u00e9put\u00e9s", "level": "Unknown", "iso": "NER", "source": "osm", "mly_count": 0, "mly_count_filtered": 0, "mly_last_year": null, "mly_close": false, "mly_top": []}}, {"type": "Feature", "geometry": {"type": "Point", "coordinates": [9.228684, 13.818813]}, "properties": {"name": "(unnamed)", "level": "Unknown", "iso": "NER", "source": "osm", "mly_count": 0, "mly_count_filtered": 0, "mly_last_year": null, "mly_close": false, "mly_top": []}}, {"type": "Feature", "geometry": {"type": "Point", "coordinates": [7.384985, 18.735208]}, "properties": {"name": "le Tarat", "level": "Unknown", "iso": "NER", "source": "osm", "mly_count": 0, "mly_count_filtered": 0, "mly_last_year": null, "mly_close": false, "mly_top": []}}, {"type": "Feature", "geometry": {"type": "Point", "coordinates": [2.128106, 13.543118]}, "properties": {"name": "CEG Couronne Nord", "level": "Unknown", "iso": "NER", "source": "osm", "mly_count": 0, "mly_count_filtered": 0, "mly_last_year": null, "mly_close": false, "mly_top": []}}, {"type": "Feature", "geometry": {"type": "Point", "coordinates": [2.056135, 13.556145]}, "properties": {"name": "CSP Bonkaney", "level": "Unknown", "iso": "NER", "source": "osm", "mly_count": 0, "mly_count_filtered": 0, "mly_last_year": null, "mly_close": false, "mly_top": []}}, {"type": "Feature", "geometry": {"type": "Point", "coordinates": [2.157548, 13.489396]}, "properties": {"name": "CEG Adamou Amadou", "level": "Unknown", "iso": "NER", "source": "osm", "mly_count": 0, "mly_count_filtered": 0, "mly_last_year": null, "mly_close": false, "mly_top": []}}, {"type": "Feature", "geometry": {"type": "Point", "coordinates": [4.035247, 13.632888]}, "properties": {"name": "(unnamed)", "level": "Unknown", "iso": "NER", "source": "osm", "mly_count": 10, "mly_count_filtered": 10, "mly_last_year": 2024, "mly_close": false, "mly_top": [{"id": "441281142136575", "captured_at": 1719748002726, "lon": 4.033623, "lat": 13.631823, "is_pano": false, "compass": 29.9, "bearing_to_school": 56.0, "heading_off_deg": 26.1, "looks_at_school": true, "dist_m": 211.7}, {"id": "1037396587778115", "captured_at": 1719748000700, "lon": 4.033607, "lat": 13.631794, "is_pano": false, "compass": 28.6, "bearing_to_school": 55.5, "heading_off_deg": 26.9, "looks_at_school": true, "dist_m": 214.9}, {"id": "462549983395326", "captured_at": 1719747999754, "lon": 4.033594, "lat": 13.63177, "is_pano": false, "compass": 29.3, "bearing_to_school": 55.2, "heading_off_deg": 25.9, "looks_at_school": true, "dist_m": 217.7}, {"id": "1119203685813495", "captured_at": 1719747998740, "lon": 4.03358, "lat": 13.631744, "is_pano": false, "compass": 29.8, "bearing_to_school": 54.8, "heading_off_deg": 25.0, "looks_at_school": true, "dist_m": 220.6}, {"id": "1045065313811934", "captured_at": 1719747997694, "lon": 4.033568, "lat": 13.631716, "is_pano": false, "compass": 30.2, "bearing_to_school": 54.3, "heading_off_deg": 24.2, "looks_at_school": true, "dist_m": 223.4}, {"id": "783980213851654", "captured_at": 1719747996782, "lon": 4.033554, "lat": 13.631687, "is_pano": false, "compass": 28.7, "bearing_to_school": 53.9, "heading_off_deg": 25.2, "looks_at_school": true, "dist_m": 226.5}]}}, {"type": "Feature", "geometry": {"type": "Point", "coordinates": [7.99313, 16.969436]}, "properties": {"name": "Complexe Scolaire Priv\u00e9 Anour Masnat", "level": "Unknown", "iso": "NER", "source": "osm", "mly_count": 0, "mly_count_filtered": 0, "mly_last_year": null, "mly_close": false, "mly_top": []}}, {"type": "Feature", "geometry": {"type": "Point", "coordinates": [2.211577, 13.474291]}, "properties": {"name": "Alpha Djadi", "level": "Unknown", "iso": "NER", "source": "osm", "mly_count": 0, "mly_count_filtered": 0, "mly_last_year": null, "mly_close": false, "mly_top": []}}, {"type": "Feature", "geometry": {"type": "Point", "coordinates": [8.829391, 13.804693]}, "properties": {"name": "(unnamed)", "level": "Unknown", "iso": "NER", "source": "osm", "mly_count": 0, "mly_count_filtered": 0, "mly_last_year": null, "mly_close": false, "mly_top": []}}, {"type": "Feature", "geometry": {"type": "Point", "coordinates": [6.553395, 13.625199]}, "properties": {"name": "\u00e9cole primaire de gidan alkali", "level": "Unknown", "iso": "NER", "source": "osm", "mly_count": 47, "mly_count_filtered": 47, "mly_last_year": 2025, "mly_close": true, "mly_top": [{"id": "918330630489148", "captured_at": 1737473808594, "lon": 6.553025, "lat": 13.625846, "is_pano": false, "compass": 109.0, "bearing_to_school": 150.9, "heading_off_deg": 41.9, "looks_at_school": true, "dist_m": 82.3}, {"id": "1254516315845985", "captured_at": 1737473807666, "lon": 6.552921, "lat": 13.625878, "is_pano": false, "compass": 109.6, "bearing_to_school": 145.9, "heading_off_deg": 36.3, "looks_at_school": true, "dist_m": 91.3}, {"id": "1825896274826554", "captured_at": 1737473806571, "lon": 6.552815, "lat": 13.62591, "is_pano": false, "compass": 107.9, "bearing_to_school": 141.6, "heading_off_deg": 33.7, "looks_at_school": true, "dist_m": 100.9}, {"id": "1355905335825653", "captured_at": 1737473805661, "lon": 6.552717, "lat": 13.625945, "is_pano": false, "compass": 107.9, "bearing_to_school": 138.6, "heading_off_deg": 30.7, "looks_at_school": true, "dist_m": 110.7}, {"id": "596464909909141", "captured_at": 1737473804615, "lon": 6.552617, "lat": 13.625983, "is_pano": false, "compass": 108.0, "bearing_to_school": 136.0, "heading_off_deg": 28.0, "looks_at_school": true, "dist_m": 121.1}, {"id": "1309774473497051", "captured_at": 1737473803605, "lon": 6.552517, "lat": 13.626022, "is_pano": false, "compass": 108.3, "bearing_to_school": 134.0, "heading_off_deg": 25.7, "looks_at_school": true, "dist_m": 131.8}]}}, {"type": "Feature", "geometry": {"type": "Point", "coordinates": [9.370684, 12.848885]}, "properties": {"name": "(unnamed)", "level": "Unknown", "iso": "NER", "source": "osm", "mly_count": 0, "mly_count_filtered": 0, "mly_last_year": null, "mly_close": false, "mly_top": []}}, {"type": "Feature", "geometry": {"type": "Point", "coordinates": [7.107924, 13.521642]}, "properties": {"name": "(unnamed)", "level": "Unknown", "iso": "NER", "source": "osm", "mly_count": 105, "mly_count_filtered": 105, "mly_last_year": 2025, "mly_close": true, "mly_top": [{"id": "590211867146887", "captured_at": 1737619737201, "lon": 7.107811, "lat": 13.522079, "is_pano": false, "compass": 126.5, "bearing_to_school": 165.9, "heading_off_deg": 39.4, "looks_at_school": true, "dist_m": 50.0}, {"id": "634211508972147", "captured_at": 1737619733182, "lon": 7.107513, "lat": 13.522406, "is_pano": false, "compass": 130.8, "bearing_to_school": 152.4, "heading_off_deg": 21.6, "looks_at_school": true, "dist_m": 95.9}, {"id": "1499092924328141", "captured_at": 1737619732139, "lon": 7.10742, "lat": 13.522513, "is_pano": false, "compass": 131.3, "bearing_to_school": 150.7, "heading_off_deg": 19.4, "looks_at_school": true, "dist_m": 111.1}, {"id": "1607590249784028", "captured_at": 1719813297132, "lon": 7.107043, "lat": 13.522204, "is_pano": false, "compass": 165.8, "bearing_to_school": 123.3, "heading_off_deg": 42.6, "looks_at_school": true, "dist_m": 113.9}, {"id": "1518948388691727", "captured_at": 1719813296152, "lon": 7.10702, "lat": 13.52229, "is_pano": false, "compass": 164.5, "bearing_to_school": 126.4, "heading_off_deg": 38.1, "looks_at_school": true, "dist_m": 121.4}, {"id": "650854240715679", "captured_at": 1737619731088, "lon": 7.107331, "lat": 13.522618, "is_pano": false, "compass": 131.0, "bearing_to_school": 149.4, "heading_off_deg": 18.5, "looks_at_school": true, "dist_m": 126.1}]}}, {"type": "Feature", "geometry": {"type": "Point", "coordinates": [7.989261, 16.979594]}, "properties": {"name": "Ecole Primaire Medersa Cheik Bouhari Tanoud\u00e9", "level": "Unknown", "iso": "NER", "source": "osm", "mly_count": 0, "mly_count_filtered": 0, "mly_last_year": null, "mly_close": false, "mly_top": []}}, {"type": "Feature", "geometry": {"type": "Point", "coordinates": [2.949238, 12.97538]}, "properties": {"name": "(unnamed)", "level": "Unknown", "iso": "NER", "source": "osm", "mly_count": 0, "mly_count_filtered": 0, "mly_last_year": null, "mly_close": false, "mly_top": []}}, {"type": "Feature", "geometry": {"type": "Point", "coordinates": [5.256478, 14.892775]}, "properties": {"name": "Jardin d'Enfants Toudoum Adoum", "level": "Unknown", "iso": "NER", "source": "osm", "mly_count": 0, "mly_count_filtered": 0, "mly_last_year": null, "mly_close": false, "mly_top": []}}, {"type": "Feature", "geometry": {"type": "Point", "coordinates": [2.086829, 14.321009]}, "properties": {"name": "C.E.S Ouallam", "level": "Unknown", "iso": "NER", "source": "osm", "mly_count": 0, "mly_count_filtered": 0, "mly_last_year": null, "mly_close": false, "mly_top": []}}, {"type": "Feature", "geometry": {"type": "Point", "coordinates": [9.061025, 13.71144]}, "properties": {"name": "(unnamed)", "level": "Unknown", "iso": "NER", "source": "osm", "mly_count": 0, "mly_count_filtered": 0, "mly_last_year": null, "mly_close": false, "mly_top": []}}, {"type": "Feature", "geometry": {"type": "Point", "coordinates": [5.704109, 15.117345]}, "properties": {"name": "(unnamed)", "level": "Unknown", "iso": "NER", "source": "osm", "mly_count": 0, "mly_count_filtered": 0, "mly_last_year": null, "mly_close": false, "mly_top": []}}, {"type": "Feature", "geometry": {"type": "Point", "coordinates": [4.684339, 15.847638]}, "properties": {"name": "(unnamed)", "level": "Unknown", "iso": "NER", "source": "osm", "mly_count": 0, "mly_count_filtered": 0, "mly_last_year": null, "mly_close": false, "mly_top": []}}, {"type": "Feature", "geometry": {"type": "Point", "coordinates": [6.68752, 13.658605]}, "properties": {"name": "\u00c9cole Primaire Garin Malam", "level": "Unknown", "iso": "NER", "source": "osm", "mly_count": 74, "mly_count_filtered": 74, "mly_last_year": 2025, "mly_close": true, "mly_top": [{"id": "670110244557367", "captured_at": 1668000736689, "lon": 6.687993, "lat": 13.658009, "is_pano": false, "compass": 279.9, "bearing_to_school": 322.4, "heading_off_deg": 42.5, "looks_at_school": true, "dist_m": 83.7}, {"id": "5816869891698275", "captured_at": 1668000735770, "lon": 6.688041, "lat": 13.657995, "is_pano": false, "compass": 279.5, "bearing_to_school": 320.3, "heading_off_deg": 40.8, "looks_at_school": true, "dist_m": 88.2}, {"id": "156650966703078", "captured_at": 1668000734737, "lon": 6.688094, "lat": 13.657981, "is_pano": false, "compass": 281.9, "bearing_to_school": 318.2, "heading_off_deg": 36.3, "looks_at_school": true, "dist_m": 93.1}, {"id": "5825401730855836", "captured_at": 1668000732696, "lon": 6.688185, "lat": 13.657947, "is_pano": false, "compass": 285.4, "bearing_to_school": 315.5, "heading_off_deg": 30.1, "looks_at_school": true, "dist_m": 102.6}, {"id": "3290657617871167", "captured_at": 1668000730733, "lon": 6.688267, "lat": 13.657927, "is_pano": false, "compass": 270.5, "bearing_to_school": 313.0, "heading_off_deg": 42.5, "looks_at_school": true, "dist_m": 110.5}, {"id": "443558481263217", "captured_at": 1667981978343, "lon": 6.68649, "lat": 13.658295, "is_pano": false, "compass": 42.1, "bearing_to_school": 72.8, "heading_off_deg": 30.7, "looks_at_school": true, "dist_m": 116.5}]}}, {"type": "Feature", "geometry": {"type": "Point", "coordinates": [2.100349, 13.462197]}, "properties": {"name": "CEG Franco-Arabe Saguia", "level": "Unknown", "iso": "NER", "source": "osm", "mly_count": 0, "mly_count_filtered": 0, "mly_last_year": null, "mly_close": false, "mly_top": []}}, {"type": "Feature", "geometry": {"type": "Point", "coordinates": [2.182944, 13.512875]}, "properties": {"name": "\u00c9cole Primaire Route Filingu\u00e9 13", "level": "Unknown", "iso": "NER", "source": "osm", "mly_count": 0, "mly_count_filtered": 0, "mly_last_year": null, "mly_close": false, "mly_top": []}}, {"type": "Feature", "geometry": {"type": "Point", "coordinates": [11.592799, 13.347436]}, "properties": {"name": "(unnamed)", "level": "Unknown", "iso": "NER", "source": "osm", "mly_count": 0, "mly_count_filtered": 0, "mly_last_year": null, "mly_close": false, "mly_top": []}}, {"type": "Feature", "geometry": {"type": "Point", "coordinates": [8.627967, 13.626698]}, "properties": {"name": "(unnamed)", "level": "Unknown", "iso": "NER", "source": "osm", "mly_count": 0, "mly_count_filtered": 0, "mly_last_year": null, "mly_close": false, "mly_top": []}}, {"type": "Feature", "geometry": {"type": "Point", "coordinates": [2.712195, 13.196743]}, "properties": {"name": "Franco-Arabe de Dar Es Salam", "level": "Primary", "iso": "NER", "source": "osm", "mly_count": 0, "mly_count_filtered": 0, "mly_last_year": null, "mly_close": false, "mly_top": []}}, {"type": "Feature", "geometry": {"type": "Point", "coordinates": [0.281745, 14.29588]}, "properties": {"name": "(unnamed)", "level": "Unknown", "iso": "NER", "source": "osm", "mly_count": 0, "mly_count_filtered": 0, "mly_last_year": null, "mly_close": false, "mly_top": []}}, {"type": "Feature", "geometry": {"type": "Point", "coordinates": [2.62053, 13.064585]}, "properties": {"name": "Medersa", "level": "Primary", "iso": "NER", "source": "osm", "mly_count": 0, "mly_count_filtered": 0, "mly_last_year": null, "mly_close": false, "mly_top": []}}, {"type": "Feature", "geometry": {"type": "Point", "coordinates": [2.165182, 13.509907]}, "properties": {"name": "CSP Le Point Focal", "level": "Unknown", "iso": "NER", "source": "osm", "mly_count": 0, "mly_count_filtered": 0, "mly_last_year": null, "mly_close": false, "mly_top": []}}, {"type": "Feature", "geometry": {"type": "Point", "coordinates": [12.739082, 13.36727]}, "properties": {"name": "(unnamed)", "level": "Unknown", "iso": "NER", "source": "osm", "mly_count": 0, "mly_count_filtered": 0, "mly_last_year": null, "mly_close": false, "mly_top": []}}, {"type": "Feature", "geometry": {"type": "Point", "coordinates": [3.207902, 13.05499]}, "properties": {"name": "CES Dosso", "level": "Unknown", "iso": "NER", "source": "osm", "mly_count": 0, "mly_count_filtered": 0, "mly_last_year": null, "mly_close": false, "mly_top": []}}, {"type": "Feature", "geometry": {"type": "Point", "coordinates": [2.103868, 13.53209]}, "properties": {"name": "Foulani koira", "level": "Unknown", "iso": "NER", "source": "osm", "mly_count": 47, "mly_count_filtered": 47, "mly_last_year": 2018, "mly_close": true, "mly_top": [{"id": "2856443051280487", "captured_at": 1478519127292, "lon": 2.10379, "lat": 13.53118, "is_pano": false, "compass": 319.9, "bearing_to_school": 4.8, "heading_off_deg": 44.9, "looks_at_school": true, "dist_m": 101.5}, {"id": "497159608084997", "captured_at": 1478519125066, "lon": 2.103922, "lat": 13.531038, "is_pano": false, "compass": 322.1, "bearing_to_school": 357.2, "heading_off_deg": 35.1, "looks_at_school": true, "dist_m": 117.1}, {"id": "844628109736361", "captured_at": 1478519123217, "lon": 2.104052, "lat": 13.530903, "is_pano": false, "compass": 322.1, "bearing_to_school": 351.4, "heading_off_deg": 29.3, "looks_at_school": true, "dist_m": 133.4}, {"id": "1472205606458885", "captured_at": 1478519121020, "lon": 2.104168, "lat": 13.530798, "is_pano": false, "compass": 312.7, "bearing_to_school": 347.3, "heading_off_deg": 34.6, "looks_at_school": true, "dist_m": 147.3}, {"id": "1136645093427673", "captured_at": 1478519119068, "lon": 2.104243, "lat": 13.530692, "is_pano": false, "compass": 335.4, "bearing_to_school": 345.4, "heading_off_deg": 9.9, "looks_at_school": true, "dist_m": 160.7}, {"id": "2818069698456195", "captured_at": 1478519117030, "lon": 2.104277, "lat": 13.530582, "is_pano": false, "compass": 349.9, "bearing_to_school": 345.2, "heading_off_deg": 4.6, "looks_at_school": true, "dist_m": 173.4}]}}, {"type": "Feature", "geometry": {"type": "Point", "coordinates": [12.166384, 13.142895]}, "properties": {"name": "(unnamed)", "level": "Unknown", "iso": "NER", "source": "osm", "mly_count": 0, "mly_count_filtered": 0, "mly_last_year": null, "mly_close": false, "mly_top": []}}, {"type": "Feature", "geometry": {"type": "Point", "coordinates": [8.85373, 13.466282]}, "properties": {"name": "(unnamed)", "level": "Unknown", "iso": "NER", "source": "osm", "mly_count": 0, "mly_count_filtered": 0, "mly_last_year": null, "mly_close": false, "mly_top": []}}, {"type": "Feature", "geometry": {"type": "Point", "coordinates": [3.959351, 13.49088]}, "properties": {"name": "Ecole Primaire Darogi", "level": "Unknown", "iso": "NER", "source": "osm", "mly_count": 0, "mly_count_filtered": 0, "mly_last_year": null, "mly_close": false, "mly_top": []}}, {"type": "Feature", "geometry": {"type": "Point", "coordinates": [7.988274, 16.966645]}, "properties": {"name": "\u00c9cole primaire Aeroport", "level": "Unknown", "iso": "NER", "source": "osm", "mly_count": 0, "mly_count_filtered": 0, "mly_last_year": null, "mly_close": false, "mly_top": []}}, {"type": "Feature", "geometry": {"type": "Point", "coordinates": [2.238633, 13.431305]}, "properties": {"name": "Bagi Soyan", "level": "Unknown", "iso": "NER", "source": "osm", "mly_count": 0, "mly_count_filtered": 0, "mly_last_year": null, "mly_close": false, "mly_top": []}}, {"type": "Feature", "geometry": {"type": "Point", "coordinates": [7.109303, 13.479026]}, "properties": {"name": "Ecole Primaire Exp\u00e9rimentale", "level": "Unknown", "iso": "NER", "source": "osm", "mly_count": 24, "mly_count_filtered": 24, "mly_last_year": 2023, "mly_close": false, "mly_top": [{"id": "1267996743779310", "captured_at": 1673788261643, "lon": 7.108985, "lat": 13.480599, "is_pano": false, "compass": 79.6, "bearing_to_school": 168.9, "heading_off_deg": 89.3, "looks_at_school": false, "dist_m": 178.3}, {"id": "184121860895777", "captured_at": 1673788262808, "lon": 7.109132, "lat": 13.480625, "is_pano": false, "compass": 79.4, "bearing_to_school": 174.1, "heading_off_deg": 94.7, "looks_at_school": false, "dist_m": 178.8}, {"id": "733978541260870", "captured_at": 1673788260645, "lon": 7.108836, "lat": 13.480572, "is_pano": false, "compass": 78.9, "bearing_to_school": 163.6, "heading_off_deg": 84.7, "looks_at_school": false, "dist_m": 179.1}, {"id": "1663901544060025", "captured_at": 1673788263740, "lon": 7.10927, "lat": 13.48065, "is_pano": false, "compass": 78.9, "bearing_to_school": 178.9, "heading_off_deg": 99.9, "looks_at_school": false, "dist_m": 180.6}, {"id": "619806466572654", "captured_at": 1673788259713, "lon": 7.108684, "lat": 13.480541, "is_pano": false, "compass": 79.1, "bearing_to_school": 158.3, "heading_off_deg": 79.2, "looks_at_school": false, "dist_m": 181.3}, {"id": "3206833672940940", "captured_at": 1673788264706, "lon": 7.109398, "lat": 13.480676, "is_pano": false, "compass": 79.8, "bearing_to_school": 183.2, "heading_off_deg": 103.4, "looks_at_school": false, "dist_m": 183.7}]}}, {"type": "Feature", "geometry": {"type": "Point", "coordinates": [2.135931, 13.516936]}, "properties": {"name": "\u00c9cole Poudri\u00e8re 2", "level": "Unknown", "iso": "NER", "source": "osm", "mly_count": 0, "mly_count_filtered": 0, "mly_last_year": null, "mly_close": false, "mly_top": []}}, {"type": "Feature", "geometry": {"type": "Point", "coordinates": [8.989821, 13.790091]}, "properties": {"name": "Complexe Scolaire Priv\u00e9 Algabid", "level": "Unknown", "iso": "NER", "source": "osm", "mly_count": 0, "mly_count_filtered": 0, "mly_last_year": null, "mly_close": false, "mly_top": []}}, {"type": "Feature", "geometry": {"type": "Point", "coordinates": [7.433204, 13.518295]}, "properties": {"name": "\u00c9cole Primaire Bini", "level": "Unknown", "iso": "NER", "source": "osm", "mly_count": 0, "mly_count_filtered": 0, "mly_last_year": null, "mly_close": false, "mly_top": []}}, {"type": "Feature", "geometry": {"type": "Point", "coordinates": [13.086221, 14.228703]}, "properties": {"name": "(unnamed)", "level": "Unknown", "iso": "NER", "source": "osm", "mly_count": 0, "mly_count_filtered": 0, "mly_last_year": null, "mly_close": false, "mly_top": []}}, {"type": "Feature", "geometry": {"type": "Point", "coordinates": [9.342953, 12.832477]}, "properties": {"name": "(unnamed)", "level": "Unknown", "iso": "NER", "source": "osm", "mly_count": 0, "mly_count_filtered": 0, "mly_last_year": null, "mly_close": false, "mly_top": []}}, {"type": "Feature", "geometry": {"type": "Point", "coordinates": [8.961416, 13.813423]}, "properties": {"name": "CSP/HASA", "level": "Unknown", "iso": "NER", "source": "osm", "mly_count": 0, "mly_count_filtered": 0, "mly_last_year": null, "mly_close": false, "mly_top": []}}, {"type": "Feature", "geometry": {"type": "Point", "coordinates": [7.133083, 13.485729]}, "properties": {"name": "CSP Mami", "level": "Unknown", "iso": "NER", "source": "osm", "mly_count": 0, "mly_count_filtered": 0, "mly_last_year": null, "mly_close": false, "mly_top": []}}, {"type": "Feature", "geometry": {"type": "Point", "coordinates": [7.125376, 13.48299]}, "properties": {"name": "Centre de Recrutement des Jeunes Tallib\u00e9s", "level": "Unknown", "iso": "NER", "source": "osm", "mly_count": 0, "mly_count_filtered": 0, "mly_last_year": null, "mly_close": false, "mly_top": []}}, {"type": "Feature", "geometry": {"type": "Point", "coordinates": [2.132379, 13.535477]}, "properties": {"name": "\u00c9cole Primaire Couronne Nord 2", "level": "Unknown", "iso": "NER", "source": "osm", "mly_count": 0, "mly_count_filtered": 0, "mly_last_year": null, "mly_close": false, "mly_top": []}}, {"type": "Feature", "geometry": {"type": "Point", "coordinates": [2.135207, 13.544587]}, "properties": {"name": "(unnamed)", "level": "Unknown", "iso": "NER", "source": "osm", "mly_count": 0, "mly_count_filtered": 0, "mly_last_year": null, "mly_close": false, "mly_top": []}}, {"type": "Feature", "geometry": {"type": "Point", "coordinates": [9.334528, 13.40246]}, "properties": {"name": "(unnamed)", "level": "Unknown", "iso": "NER", "source": "osm", "mly_count": 0, "mly_count_filtered": 0, "mly_last_year": null, "mly_close": false, "mly_top": []}}, {"type": "Feature", "geometry": {"type": "Point", "coordinates": [5.955709, 14.070663]}, "properties": {"name": "Ecole Primaire Franco-arabe de Madaoua", "level": "Unknown", "iso": "NER", "source": "osm", "mly_count": 0, "mly_count_filtered": 0, "mly_last_year": null, "mly_close": false, "mly_top": []}}, {"type": "Feature", "geometry": {"type": "Point", "coordinates": [2.159088, 13.540204]}, "properties": {"name": "CSP Decroly", "level": "Unknown", "iso": "NER", "source": "osm", "mly_count": 0, "mly_count_filtered": 0, "mly_last_year": null, "mly_close": false, "mly_top": []}}, {"type": "Feature", "geometry": {"type": "Point", "coordinates": [2.097761, 13.576056]}, "properties": {"name": "Banikoubey 2", "level": "Unknown", "iso": "NER", "source": "osm", "mly_count": 0, "mly_count_filtered": 0, "mly_last_year": null, "mly_close": false, "mly_top": []}}, {"type": "Feature", "geometry": {"type": "Point", "coordinates": [2.82692, 13.207084]}, "properties": {"name": "Medersa", "level": "Primary", "iso": "NER", "source": "osm", "mly_count": 0, "mly_count_filtered": 0, "mly_last_year": null, "mly_close": false, "mly_top": []}}, {"type": "Feature", "geometry": {"type": "Point", "coordinates": [8.532631, 14.002244]}, "properties": {"name": "(unnamed)", "level": "Unknown", "iso": "NER", "source": "osm", "mly_count": 0, "mly_count_filtered": 0, "mly_last_year": null, "mly_close": false, "mly_top": []}}, {"type": "Feature", "geometry": {"type": "Point", "coordinates": [2.127206, 13.561025]}, "properties": {"name": "CEG Franco-Arabe Lazaret", "level": "Unknown", "iso": "NER", "source": "osm", "mly_count": 0, "mly_count_filtered": 0, "mly_last_year": null, "mly_close": false, "mly_top": []}}, {"type": "Feature", "geometry": {"type": "Point", "coordinates": [2.069393, 13.495124]}, "properties": {"name": "CSP Nordir\u00e9", "level": "Unknown", "iso": "NER", "source": "osm", "mly_count": 0, "mly_count_filtered": 0, "mly_last_year": null, "mly_close": false, "mly_top": []}}, {"type": "Feature", "geometry": {"type": "Point", "coordinates": [2.111174, 13.480242]}, "properties": {"name": "\u00c9cole Primaire Kirkissoye", "level": "Unknown", "iso": "NER", "source": "osm", "mly_count": 0, "mly_count_filtered": 0, "mly_last_year": null, "mly_close": false, "mly_top": []}}, {"type": "Feature", "geometry": {"type": "Point", "coordinates": [5.256973, 14.887777]}, "properties": {"name": "(unnamed)", "level": "Unknown", "iso": "NER", "source": "osm", "mly_count": 0, "mly_count_filtered": 0, "mly_last_year": null, "mly_close": false, "mly_top": []}}, {"type": "Feature", "geometry": {"type": "Point", "coordinates": [13.342643, 14.694843]}, "properties": {"name": "(unnamed)", "level": "Unknown", "iso": "NER", "source": "osm", "mly_count": 0, "mly_count_filtered": 0, "mly_last_year": null, "mly_close": false, "mly_top": []}}, {"type": "Feature", "geometry": {"type": "Point", "coordinates": [8.053966, 13.547338]}, "properties": {"name": "Ecole Primaire Centre", "level": "Unknown", "iso": "NER", "source": "osm", "mly_count": 0, "mly_count_filtered": 0, "mly_last_year": null, "mly_close": false, "mly_top": []}}, {"type": "Feature", "geometry": {"type": "Point", "coordinates": [7.12201, 13.530711]}, "properties": {"name": "CSP Kimiya", "level": "Unknown", "iso": "NER", "source": "osm", "mly_count": 36, "mly_count_filtered": 36, "mly_last_year": 2025, "mly_close": true, "mly_top": [{"id": "507484575695585", "captured_at": 1737620866115, "lon": 7.121981, "lat": 13.53036, "is_pano": false, "compass": 43.1, "bearing_to_school": 4.6, "heading_off_deg": 38.5, "looks_at_school": true, "dist_m": 39.2}, {"id": "1119354149495276", "captured_at": 1737620865169, "lon": 7.121891, "lat": 13.530291, "is_pano": false, "compass": 41.5, "bearing_to_school": 15.4, "heading_off_deg": 26.1, "looks_at_school": true, "dist_m": 48.4}, {"id": "600118285946476", "captured_at": 1737620864089, "lon": 7.121793, "lat": 13.530212, "is_pano": false, "compass": 40.3, "bearing_to_school": 22.9, "heading_off_deg": 17.4, "looks_at_school": true, "dist_m": 60.3}, {"id": "589578907333546", "captured_at": 1737620863109, "lon": 7.121712, "lat": 13.530143, "is_pano": false, "compass": 38.1, "bearing_to_school": 27.0, "heading_off_deg": 11.1, "looks_at_school": true, "dist_m": 70.9}, {"id": "642863215084198", "captured_at": 1737620862133, "lon": 7.121637, "lat": 13.530072, "is_pano": false, "compass": 35.5, "bearing_to_school": 29.6, "heading_off_deg": 5.9, "looks_at_school": true, "dist_m": 81.7}, {"id": "535444322849885", "captured_at": 1737620861115, "lon": 7.12157, "lat": 13.529996, "is_pano": false, "compass": 34.8, "bearing_to_school": 30.9, "heading_off_deg": 3.9, "looks_at_school": true, "dist_m": 92.6}]}}, {"type": "Feature", "geometry": {"type": "Point", "coordinates": [5.23615, 14.867885]}, "properties": {"name": "\u00c9cole", "level": "Unknown", "iso": "NER", "source": "osm", "mly_count": 0, "mly_count_filtered": 0, "mly_last_year": null, "mly_close": false, "mly_top": []}}, {"type": "Feature", "geometry": {"type": "Point", "coordinates": [11.184223, 13.708624]}, "properties": {"name": "(unnamed)", "level": "Unknown", "iso": "NER", "source": "osm", "mly_count": 0, "mly_count_filtered": 0, "mly_last_year": null, "mly_close": false, "mly_top": []}}, {"type": "Feature", "geometry": {"type": "Point", "coordinates": [12.026566, 13.218371]}, "properties": {"name": "(unnamed)", "level": "Unknown", "iso": "NER", "source": "osm", "mly_count": 0, "mly_count_filtered": 0, "mly_last_year": null, "mly_close": false, "mly_top": []}}, {"type": "Feature", "geometry": {"type": "Point", "coordinates": [11.108268, 13.466158]}, "properties": {"name": "(unnamed)", "level": "Unknown", "iso": "NER", "source": "osm", "mly_count": 0, "mly_count_filtered": 0, "mly_last_year": null, "mly_close": false, "mly_top": []}}, {"type": "Feature", "geometry": {"type": "Point", "coordinates": [11.593029, 13.347817]}, "properties": {"name": "(unnamed)", "level": "Unknown", "iso": "NER", "source": "osm", "mly_count": 0, "mly_count_filtered": 0, "mly_last_year": null, "mly_close": false, "mly_top": []}}, {"type": "Feature", "geometry": {"type": "Point", "coordinates": [12.083681, 13.255914]}, "properties": {"name": "(unnamed)", "level": "Unknown", "iso": "NER", "source": "osm", "mly_count": 0, "mly_count_filtered": 0, "mly_last_year": null, "mly_close": false, "mly_top": []}}, {"type": "Feature", "geometry": {"type": "Point", "coordinates": [7.191222, 13.757154]}, "properties": {"name": "(unnamed)", "level": "Unknown", "iso": "NER", "source": "osm", "mly_count": 0, "mly_count_filtered": 0, "mly_last_year": null, "mly_close": false, "mly_top": []}}, {"type": "Feature", "geometry": {"type": "Point", "coordinates": [2.090137, 13.532977]}, "properties": {"name": "Dan Fodio Coll\u00e8ge et Lyc\u00e9e", "level": "Unknown", "iso": "NER", "source": "osm", "mly_count": 6, "mly_count_filtered": 6, "mly_last_year": 2016, "mly_close": false, "mly_top": [{"id": "516454212709319", "captured_at": 1477642225638, "lon": 2.088581, "lat": 13.532277, "is_pano": false, "compass": 22.2, "bearing_to_school": 65.2, "heading_off_deg": 42.9, "looks_at_school": true, "dist_m": 185.3}, {"id": "268077711696281", "captured_at": 1477642217669, "lon": 2.088362, "lat": 13.531718, "is_pano": false, "compass": 35.8, "bearing_to_school": 53.9, "heading_off_deg": 18.1, "looks_at_school": true, "dist_m": 237.5}, {"id": "1081484699039418", "captured_at": 1477642231738, "lon": 2.088647, "lat": 13.532555, "is_pano": false, "compass": 6.8, "bearing_to_school": 73.8, "heading_off_deg": 67.0, "looks_at_school": false, "dist_m": 167.8}, {"id": "855261595332926", "captured_at": 1477642251770, "lon": 2.088583, "lat": 13.533067, "is_pano": false, "compass": 22.3, "bearing_to_school": 93.4, "heading_off_deg": 71.1, "looks_at_school": false, "dist_m": 168.3}, {"id": "838235383708398", "captured_at": 1477642229636, "lon": 2.088638, "lat": 13.532492, "is_pano": false, "compass": 9.3, "bearing_to_school": 71.6, "heading_off_deg": 62.3, "looks_at_school": false, "dist_m": 170.8}, {"id": "283737123456510", "captured_at": 1477642221630, "lon": 2.088522, "lat": 13.531997, "is_pano": false, "compass": 9.1, "bearing_to_school": 58.0, "heading_off_deg": 48.9, "looks_at_school": false, "dist_m": 205.9}]}}, {"type": "Feature", "geometry": {"type": "Point", "coordinates": [7.104969, 13.491242]}, "properties": {"name": "(unnamed)", "level": "Unknown", "iso": "NER", "source": "osm", "mly_count": 0, "mly_count_filtered": 0, "mly_last_year": null, "mly_close": false, "mly_top": []}}, {"type": "Feature", "geometry": {"type": "Point", "coordinates": [12.025997, 13.205169]}, "properties": {"name": "(unnamed)", "level": "Unknown", "iso": "NER", "source": "osm", "mly_count": 0, "mly_count_filtered": 0, "mly_last_year": null, "mly_close": false, "mly_top": []}}, {"type": "Feature", "geometry": {"type": "Point", "coordinates": [8.995834, 13.800857]}, "properties": {"name": "Ecole Primaire Tanimoune", "level": "Unknown", "iso": "NER", "source": "osm", "mly_count": 0, "mly_count_filtered": 0, "mly_last_year": null, "mly_close": false, "mly_top": []}}, {"type": "Feature", "geometry": {"type": "Point", "coordinates": [7.848698, 17.239099]}, "properties": {"name": "(unnamed)", "level": "Unknown", "iso": "NER", "source": "osm", "mly_count": 0, "mly_count_filtered": 0, "mly_last_year": null, "mly_close": false, "mly_top": []}}, {"type": "Feature", "geometry": {"type": "Point", "coordinates": [7.109593, 13.492027]}, "properties": {"name": "Lyc\u00e9e Technique Dan Kassawa", "level": "Unknown", "iso": "NER", "source": "osm", "mly_count": 97, "mly_count_filtered": 97, "mly_last_year": 2025, "mly_close": true, "mly_top": [{"id": "482581591322967", "captured_at": 1737552797088, "lon": 7.11044, "lat": 13.491599, "is_pano": false, "compass": 339.6, "bearing_to_school": 297.4, "heading_off_deg": 42.2, "looks_at_school": true, "dist_m": 103.2}, {"id": "1361017051921589", "captured_at": 1737552796173, "lon": 7.110458, "lat": 13.491515, "is_pano": false, "compass": 339.2, "bearing_to_school": 301.3, "heading_off_deg": 37.9, "looks_at_school": true, "dist_m": 109.5}, {"id": "1021193303142249", "captured_at": 1737552795123, "lon": 7.110479, "lat": 13.491416, "is_pano": false, "compass": 339.1, "bearing_to_school": 305.4, "heading_off_deg": 33.8, "looks_at_school": true, "dist_m": 117.4}, {"id": "830284495895662", "captured_at": 1737552794178, "lon": 7.110497, "lat": 13.491326, "is_pano": false, "compass": 339.2, "bearing_to_school": 308.6, "heading_off_deg": 30.7, "looks_at_school": true, "dist_m": 125.0}, {"id": "602117275762951", "captured_at": 1737552793104, "lon": 7.11052, "lat": 13.49122, "is_pano": false, "compass": 339.3, "bearing_to_school": 311.8, "heading_off_deg": 27.5, "looks_at_school": true, "dist_m": 134.6}, {"id": "604916772148502", "captured_at": 1737552792151, "lon": 7.110539, "lat": 13.491131, "is_pano": false, "compass": 339.7, "bearing_to_school": 314.3, "heading_off_deg": 25.5, "looks_at_school": true, "dist_m": 142.7}]}}, {"type": "Feature", "geometry": {"type": "Point", "coordinates": [2.052877, 13.497165]}, "properties": {"name": "\u00c9cole Franco-Arabe Kourtere 2", "level": "Unknown", "iso": "NER", "source": "osm", "mly_count": 0, "mly_count_filtered": 0, "mly_last_year": null, "mly_close": false, "mly_top": []}}, {"type": "Feature", "geometry": {"type": "Point", "coordinates": [8.009205, 16.977397]}, "properties": {"name": "Madrassa Sabongari", "level": "Unknown", "iso": "NER", "source": "osm", "mly_count": 0, "mly_count_filtered": 0, "mly_last_year": null, "mly_close": false, "mly_top": []}}, {"type": "Feature", "geometry": {"type": "Point", "coordinates": [2.127187, 13.494086]}, "properties": {"name": "CSP Franco-Arabe Moustakim", "level": "Unknown", "iso": "NER", "source": "osm", "mly_count": 0, "mly_count_filtered": 0, "mly_last_year": null, "mly_close": false, "mly_top": []}}, {"type": "Feature", "geometry": {"type": "Point", "coordinates": [2.164974, 13.435747]}, "properties": {"name": "(unnamed)", "level": "Unknown", "iso": "NER", "source": "osm", "mly_count": 0, "mly_count_filtered": 0, "mly_last_year": null, "mly_close": false, "mly_top": []}}, {"type": "Feature", "geometry": {"type": "Point", "coordinates": [2.32115, 13.340488]}, "properties": {"name": "(unnamed)", "level": "Unknown", "iso": "NER", "source": "osm", "mly_count": 0, "mly_count_filtered": 0, "mly_last_year": null, "mly_close": false, "mly_top": []}}, {"type": "Feature", "geometry": {"type": "Point", "coordinates": [2.128062, 13.509933]}, "properties": {"name": "Ecole Nouveau March\u00e9", "level": "Unknown", "iso": "NER", "source": "osm", "mly_count": 0, "mly_count_filtered": 0, "mly_last_year": null, "mly_close": false, "mly_top": []}}, {"type": "Feature", "geometry": {"type": "Point", "coordinates": [2.091345, 13.528801]}, "properties": {"name": "CEG 7 Yantala", "level": "Unknown", "iso": "NER", "source": "osm", "mly_count": 0, "mly_count_filtered": 0, "mly_last_year": null, "mly_close": false, "mly_top": []}}, {"type": "Feature", "geometry": {"type": "Point", "coordinates": [9.237147, 12.912623]}, "properties": {"name": "(unnamed)", "level": "Unknown", "iso": "NER", "source": "osm", "mly_count": 0, "mly_count_filtered": 0, "mly_last_year": null, "mly_close": false, "mly_top": []}}, {"type": "Feature", "geometry": {"type": "Point", "coordinates": [3.745761, 13.579627]}, "properties": {"name": "(unnamed)", "level": "Unknown", "iso": "NER", "source": "osm", "mly_count": 0, "mly_count_filtered": 0, "mly_last_year": null, "mly_close": false, "mly_top": []}}, {"type": "Feature", "geometry": {"type": "Point", "coordinates": [7.098648, 13.615535]}, "properties": {"name": "(unnamed)", "level": "Unknown", "iso": "NER", "source": "osm", "mly_count": 0, "mly_count_filtered": 0, "mly_last_year": null, "mly_close": false, "mly_top": []}}, {"type": "Feature", "geometry": {"type": "Point", "coordinates": [2.189841, 13.528643]}, "properties": {"name": "(unnamed)", "level": "Unknown", "iso": "NER", "source": "osm", "mly_count": 0, "mly_count_filtered": 0, "mly_last_year": null, "mly_close": false, "mly_top": []}}, {"type": "Feature", "geometry": {"type": "Point", "coordinates": [2.090477, 13.492899]},