{"type": "FeatureCollection", "features": [{"type": "Feature", "geometry": {"type": "Point", "coordinates": [-9.320538, 10.512417]}, "properties": {"id": "osm_n2858399029", "name": "\u07ca\u07d9\u07ca\u07d3\u07ce\u07eb \u07de\u07ca\u07d9\u07ca\u07f2\u07d5\u07ca", "level": "Unknown", "operator_type": null, "iso": "GIN", "country": "Guinea", "source": "osm"}}, {"type": "Feature", "geometry": {"type": "Point", "coordinates": [-13.563146, 9.634272]}, "properties": {"id": "osm_n2864982106", "name": "Billy Ecole Enta", "level": "Unknown", "operator_type": null, "iso": "GIN", "country": "Guinea", "source": "osm"}}, {"type": "Feature", "geometry": {"type": "Point", "coordinates": [-12.278185, 11.316745]}, "properties": {"id": "osm_n2949609438", "name": "(unnamed)", "level": "Unknown", "operator_type": null, "iso": "GIN", "country": "Guinea", "source": "osm"}}, {"type": "Feature", "geometry": {"type": "Point", "coordinates": [-12.285979, 11.310979]}, "properties": {"id": "osm_n2949627067", "name": "\u00c9cole Professionel", "level": "Unknown", "operator_type": null, "iso": "GIN", "country": "Guinea", "source": "osm"}}, {"type": "Feature", "geometry": {"type": "Point", "coordinates": [-13.529357, 12.405047]}, "properties": {"id": "osm_n3075239944", "name": "\u00c9cole primaire de Sareboido", "level": "Unknown", "operator_type": null, "iso": "GIN", "country": "Guinea", "source": "osm"}}, {"type": "Feature", "geometry": {"type": "Point", "coordinates": [-13.520726, 12.408911]}, "properties": {"id": "osm_n3075239949", "name": "(unnamed)", "level": "Unknown", "operator_type": null, "iso": "GIN", "country": "Guinea", "source": "osm"}}, {"type": "Feature", "geometry": {"type": "Point", "coordinates": [-11.305083, 12.009467]}, "properties": {"id": "osm_n3079751676", "name": "KERA", "level": "Primary", "operator_type": "community", "iso": "GIN", "country": "Guinea", "source": "osm"}}, {"type": "Feature", "geometry": {"type": "Point", "coordinates": [-12.067565, 11.215163]}, "properties": {"id": "osm_n3089812336", "name": "College de Mombeya", "level": "Unknown", "operator_type": null, "iso": "GIN", "country": "Guinea", "source": "osm"}}, {"type": "Feature", "geometry": {"type": "Point", "coordinates": [-12.068793, 11.213605]}, "properties": {"id": "osm_n3089812341", "name": "Ecole Primaire de Mombeya", "level": "Unknown", "operator_type": null, "iso": "GIN", "country": "Guinea", "source": "osm"}}, {"type": "Feature", "geometry": {"type": "Point", "coordinates": [-10.091551, 9.186387]}, "properties": {"id": "osm_n3095347723", "name": "\u00c9cole primaire Aboubacar Demba Camara", "level": "Unknown", "operator_type": null, "iso": "GIN", "country": "Guinea", "source": "osm"}}, {"type": "Feature", "geometry": {"type": "Point", "coordinates": [-13.031685, 10.900606]}, "properties": {"id": "osm_n4022702442", "name": "Groupe Scolaire - Alpha Ibrahima Kola", "level": "Unknown", "operator_type": null, "iso": "GIN", "country": "Guinea", "source": "osm"}}, {"type": "Feature", "geometry": {"type": "Point", "coordinates": [-12.791451, 10.000757]}, "properties": {"id": "osm_n4179488661", "name": "groupe scolaire maternelle et primaire", "level": "Unknown", "operator_type": null, "iso": "GIN", "country": "Guinea", "source": "osm"}}, {"type": "Feature", "geometry": {"type": "Point", "coordinates": [-12.841804, 10.029462]}, "properties": {"id": "osm_n4179488662", "name": "groupe scolaire", "level": "Unknown", "operator_type": null, "iso": "GIN", "country": "Guinea", "source": "osm"}}, {"type": "Feature", "geometry": {"type": "Point", "coordinates": [-13.498242, 9.70061]}, "properties": {"id": "osm_n4179488663", "name": "groupe scolaire", "level": "Unknown", "operator_type": null, "iso": "GIN", "country": "Guinea", "source": "osm"}}, {"type": "Feature", "geometry": {"type": "Point", "coordinates": [-13.275968, 9.808086]}, "properties": {"id": "osm_n4179488664", "name": "groupe scolaire", "level": "Unknown", "operator_type": null, "iso": "GIN", "country": "Guinea", "source": "osm"}}, {"type": "Feature", "geometry": {"type": "Point", "coordinates": [-12.904001, 10.003085]}, "properties": {"id": "osm_n4179488675", "name": "(unnamed)", "level": "Unknown", "operator_type": null, "iso": "GIN", "country": "Guinea", "source": "osm"}}, {"type": "Feature", "geometry": {"type": "Point", "coordinates": [-12.902387, 10.008698]}, "properties": {"id": "osm_n4179488679", "name": "(unnamed)", "level": "Unknown", "operator_type": null, "iso": "GIN", "country": "Guinea", "source": "osm"}}, {"type": "Feature", "geometry": {"type": "Point", "coordinates": [-12.862104, 10.032329]}, "properties": {"id": "osm_n4179509592", "name": "(unnamed)", "level": "Unknown", "operator_type": null, "iso": "GIN", "country": "Guinea", "source": "osm"}}, {"type": "Feature", "geometry": {"type": "Point", "coordinates": [-12.729844, 9.994536]}, "properties": {"id": "osm_n4179509663", "name": "(unnamed)", "level": "Unknown", "operator_type": null, "iso": "GIN", "country": "Guinea", "source": "osm"}}, {"type": "Feature", "geometry": {"type": "Point", "coordinates": [-12.728611, 9.99513]}, "properties": {"id": "osm_n4179509665", "name": "(unnamed)", "level": "Unknown", "operator_type": null, "iso": "GIN", "country": "Guinea", "source": "osm"}}, {"type": "Feature", "geometry": {"type": "Point", "coordinates": [-12.754497, 9.995953]}, "properties": {"id": "osm_n4179509666", "name": "(unnamed)", "level": "Unknown", "operator_type": null, "iso": "GIN", "country": "Guinea", "source": "osm"}}, {"type": "Feature", "geometry": {"type": "Point", "coordinates": [-13.589332, 10.404053]}, "properties": {"id": "osm_n4180638215", "name": "TABOSSI", "level": "Unknown", "operator_type": null, "iso": "GIN", "country": "Guinea", "source": "osm"}}, {"type": "Feature", "geometry": {"type": "Point", "coordinates": [-12.284745, 11.314773]}, "properties": {"id": "osm_n4192711666", "name": "Yacine Diallo", "level": "Unknown", "operator_type": null, "iso": "GIN", "country": "Guinea", "source": "osm"}}, {"type": "Feature", "geometry": {"type": "Point", "coordinates": [-13.56322, 9.635817]}, "properties": {"id": "osm_n4234841174", "name": "Emmaus", "level": "Unknown", "operator_type": null, "iso": "GIN", "country": "Guinea", "source": "osm"}}, {"type": "Feature", "geometry": {"type": "Point", "coordinates": [-13.561734, 9.630757]}, "properties": {"id": "osm_n4234844429", "name": "Billy Ecole", "level": "Secondary", "operator_type": null, "iso": "GIN", "country": "Guinea", "source": "osm"}}, {"type": "Feature", "geometry": {"type": "Point", "coordinates": [-13.617322, 9.580461]}, "properties": {"id": "osm_n4244278390", "name": "Lyc\u00e9e Aviation", "level": "Unknown", "operator_type": null, "iso": "GIN", "country": "Guinea", "source": "osm"}}, {"type": "Feature", "geometry": {"type": "Point", "coordinates": [-13.573937, 9.628434]}, "properties": {"id": "osm_n4341028365", "name": "Groupe Scolaire David Diop", "level": "Unknown", "operator_type": null, "iso": "GIN", "country": "Guinea", "source": "osm"}}, {"type": "Feature", "geometry": {"type": "Point", "coordinates": [-13.590362, 9.606746]}, "properties": {"id": "osm_n4341028366", "name": "groupe scolaire AK", "level": "Unknown", "operator_type": null, "iso": "GIN", "country": "Guinea", "source": "osm"}}, {"type": "Feature", "geometry": {"type": "Point", "coordinates": [-13.64175, 9.603021]}, "properties": {"id": "osm_n4341029195", "name": "groupe scolaire bella lekkol", "level": "Unknown", "operator_type": null, "iso": "GIN", "country": "Guinea", "source": "osm"}}, {"type": "Feature", "geometry": {"type": "Point", "coordinates": [-13.545613, 9.675709]}, "properties": {"id": "osm_n4347459596", "name": "\u00c9cole internationale de Conakry", "level": "Unknown", "operator_type": null, "iso": "GIN", "country": "Guinea", "source": "osm"}}, {"type": "Feature", "geometry": {"type": "Point", "coordinates": [-13.659401, 9.584318]}, "properties": {"id": "osm_n4353748679", "name": "Groupe scolaire la renaissance", "level": "Unknown", "operator_type": null, "iso": "GIN", "country": "Guinea", "source": "osm"}}, {"type": "Feature", "geometry": {"type": "Point", "coordinates": [-13.672863, 9.543747]}, "properties": {"id": "osm_n4359076902", "name": "Complexe scolaire docteur mamouna tour\u00e9", "level": "Unknown", "operator_type": null, "iso": "GIN", "country": "Guinea", "source": "osm"}}, {"type": "Feature", "geometry": {"type": "Point", "coordinates": [-13.664758, 9.548867]}, "properties": {"id": "osm_n4378353660", "name": "\u00c9cole Primaire Dixinn Gare Rail", "level": "Unknown", "operator_type": null, "iso": "GIN", "country": "Guinea", "source": "osm"}}, {"type": "Feature", "geometry": {"type": "Point", "coordinates": [-12.739783, 10.979059]}, "properties": {"id": "osm_n4403297695", "name": "Ecole", "level": "Unknown", "operator_type": null, "iso": "GIN", "country": "Guinea", "source": "osm"}}, {"type": "Feature", "geometry": {"type": "Point", "coordinates": [-13.58722, 10.359909]}, "properties": {"id": "osm_n4404282987", "name": "Ecole", "level": "Unknown", "operator_type": null, "iso": "GIN", "country": "Guinea", "source": "osm"}}, {"type": "Feature", "geometry": {"type": "Point", "coordinates": [-13.643625, 9.566154]}, "properties": {"id": "osm_n4405090345", "name": "complexe scolaire Adama Tounkara", "level": "Unknown", "operator_type": null, "iso": "GIN", "country": "Guinea", "source": "osm"}}, {"type": "Feature", "geometry": {"type": "Point", "coordinates": [-13.662722, 9.549848]}, "properties": {"id": "osm_n4405092107", "name": "\u00e9cole primaire el hadj moussa kant\u00e9", "level": "Unknown", "operator_type": null, "iso": "GIN", "country": "Guinea", "source": "osm"}}, {"type": "Feature", "geometry": {"type": "Point", "coordinates": [-13.993801, 10.411342]}, "properties": {"id": "osm_n4419395290", "name": "Primaire de Faremah", "level": "Unknown", "operator_type": null, "iso": "GIN", "country": "Guinea", "source": "osm"}}, {"type": "Feature", "geometry": {"type": "Point", "coordinates": [-14.052856, 10.418035]}, "properties": {"id": "osm_n4419424389", "name": "Primaire", "level": "Unknown", "operator_type": null, "iso": "GIN", "country": "Guinea", "source": "osm"}}, {"type": "Feature", "geometry": {"type": "Point", "coordinates": [-13.659159, 9.582518]}, "properties": {"id": "osm_n4432678826", "name": "Centre de Formation professionnelle", "level": "Unknown", "operator_type": null, "iso": "GIN", "country": "Guinea", "source": "osm"}}, {"type": "Feature", "geometry": {"type": "Point", "coordinates": [-13.660548, 9.580755]}, "properties": {"id": "osm_n4432761462", "name": "Koumandjan Keita", "level": "Unknown", "operator_type": null, "iso": "GIN", "country": "Guinea", "source": "osm"}}, {"type": "Feature", "geometry": {"type": "Point", "coordinates": [-13.665141, 9.582406]}, "properties": {"id": "osm_n4432761465", "name": "Complexe Scolaire Saint Georges", "level": "Unknown", "operator_type": null, "iso": "GIN", "country": "Guinea", "source": "osm"}}, {"type": "Feature", "geometry": {"type": "Point", "coordinates": [-13.750475, 9.477838]}, "properties": {"id": "osm_n4494999821", "name": "\u00c9cole primaire de kassa", "level": "Unknown", "operator_type": null, "iso": "GIN", "country": "Guinea", "source": "osm"}}, {"type": "Feature", "geometry": {"type": "Point", "coordinates": [-13.751827, 9.481263]}, "properties": {"id": "osm_n4495000550", "name": "coll\u00e8ge de kassa", "level": "Unknown", "operator_type": null, "iso": "GIN", "country": "Guinea", "source": "osm"}}, {"type": "Feature", "geometry": {"type": "Point", "coordinates": [-13.568013, 9.678711]}, "properties": {"id": "osm_n4495016097", "name": "GS Hadja fanta", "level": "Unknown", "operator_type": null, "iso": "GIN", "country": "Guinea", "source": "osm"}}, {"type": "Feature", "geometry": {"type": "Point", "coordinates": [-8.779305, 8.079045]}, "properties": {"id": "osm_n4502628661", "name": "Coll\u00e8ge de Womey", "level": "Unknown", "operator_type": null, "iso": "GIN", "country": "Guinea", "source": "osm"}}, {"type": "Feature", "geometry": {"type": "Point", "coordinates": [-13.622138, 9.609525]}, "properties": {"id": "osm_n4505205890", "name": "Diamila", "level": "Unknown", "operator_type": null, "iso": "GIN", "country": "Guinea", "source": "osm"}}, {"type": "Feature", "geometry": {"type": "Point", "coordinates": [-13.08929, 9.430537]}, "properties": {"id": "osm_n4515249293", "name": "(unnamed)", "level": "Unknown", "operator_type": null, "iso": "GIN", "country": "Guinea", "source": "osm"}}, {"type": "Feature", "geometry": {"type": "Point", "coordinates": [-13.083573, 9.42248]}, "properties": {"id": "osm_n4515249294", "name": "Complexe Scolaire Fod\u00e9 Katibi Toure", "level": "Unknown", "operator_type": null, "iso": "GIN", "country": "Guinea", "source": "osm"}}, {"type": "Feature", "geometry": {"type": "Point", "coordinates": [-13.083279, 9.429715]}, "properties": {"id": "osm_n4515249295", "name": "\u00c9cole Primaire Centre 1", "level": "Unknown", "operator_type": null, "iso": "GIN", "country": "Guinea", "source": "osm"}}, {"type": "Feature", "geometry": {"type": "Point", "coordinates": [-13.07867, 9.430132]}, "properties": {"id": "osm_n4515249297", "name": "Coll\u00e8ge Mamadou Konate", "level": "Unknown", "operator_type": null, "iso": "GIN", "country": "Guinea", "source": "osm"}}, {"type": "Feature", "geometry": {"type": "Point", "coordinates": [-13.078687, 9.437727]}, "properties": {"id": "osm_n4515249299", "name": "\u00c9cole Primaire Madina Forecariah", "level": "Unknown", "operator_type": null, "iso": "GIN", "country": "Guinea", "source": "osm"}}, {"type": "Feature", "geometry": {"type": "Point", "coordinates": [-13.082968, 9.429662]}, "properties": {"id": "osm_n4515249301", "name": "\u00c9cole Primaire Centre 1", "level": "Unknown", "operator_type": null, "iso": "GIN", "country": "Guinea", "source": "osm"}}, {"type": "Feature", "geometry": {"type": "Point", "coordinates": [-13.083032, 9.429419]}, "properties": {"id": "osm_n4515249302", "name": "\u00c9cole Primaire Centre 1", "level": "Unknown", "operator_type": null, "iso": "GIN", "country": "Guinea", "source": "osm"}}, {"type": "Feature", "geometry": {"type": "Point", "coordinates": [-13.075544, 9.423079]}, "properties": {"id": "osm_n4515249307", "name": "\u00c9cole Primaire Tp", "level": "Unknown", "operator_type": null, "iso": "GIN", "country": "Guinea", "source": "osm"}}, {"type": "Feature", "geometry": {"type": "Point", "coordinates": [-13.089974, 9.434171]}, "properties": {"id": "osm_n4515249309", "name": "\u00c9cole Primaire Centre 5", "level": "Unknown", "operator_type": null, "iso": "GIN", "country": "Guinea", "source": "osm"}}, {"type": "Feature", "geometry": {"type": "Point", "coordinates": [-13.079214, 9.438165]}, "properties": {"id": "osm_n4515249310", "name": "\u00c9cole Primaire", "level": "Unknown", "operator_type": null, "iso": "GIN", "country": "Guinea", "source": "osm"}}, {"type": "Feature", "geometry": {"type": "Point", "coordinates": [-13.088417, 9.427467]}, "properties": {"id": "osm_n4515249311", "name": "Ecole Primaire Fatakh\u00f6 1", "level": "Unknown", "operator_type": null, "iso": "GIN", "country": "Guinea", "source": "osm"}}, {"type": "Feature", "geometry": {"type": "Point", "coordinates": [-13.089053, 9.430075]}, "properties": {"id": "osm_n4515249313", "name": "(unnamed)", "level": "Unknown", "operator_type": null, "iso": "GIN", "country": "Guinea", "source": "osm"}}, {"type": "Feature", "geometry": {"type": "Point", "coordinates": [-13.089822, 9.434347]}, "properties": {"id": "osm_n4515249315", "name": "\u00c9cole Primaire Centre 5", "level": "Unknown", "operator_type": null, "iso": "GIN", "country": "Guinea", "source": "osm"}}, {"type": "Feature", "geometry": {"type": "Point", "coordinates": [-13.088771, 9.430034]}, "properties": {"id": "osm_n4515249316", "name": "(unnamed)", "level": "Unknown", "operator_type": null, "iso": "GIN", "country": "Guinea", "source": "osm"}}, {"type": "Feature", "geometry": {"type": "Point", "coordinates": [-13.088988, 9.43046]}, "properties": {"id": "osm_n4515249317", "name": "(unnamed)", "level": "Unknown", "operator_type": null, "iso": "GIN", "country": "Guinea", "source": "osm"}}, {"type": "Feature", "geometry": {"type": "Point", "coordinates": [-8.959066, 7.358257]}, "properties": {"id": "osm_n4515274566", "name": "\u00c9cole Primaire Jm Williams", "level": "Unknown", "operator_type": null, "iso": "GIN", "country": "Guinea", "source": "osm"}}, {"type": "Feature", "geometry": {"type": "Point", "coordinates": [-8.955939, 7.349783]}, "properties": {"id": "osm_n4515274567", "name": "\u00c9cole Primaire de Di\u00e9ck\u00e9", "level": "Unknown", "operator_type": null, "iso": "GIN", "country": "Guinea", "source": "osm"}}, {"type": "Feature", "geometry": {"type": "Point", "coordinates": [-8.956566, 7.349829]}, "properties": {"id": "osm_n4515274568", "name": "\u00c9cole Primaire de Di\u00e9ck\u00e9", "level": "Unknown", "operator_type": null, "iso": "GIN", "country": "Guinea", "source": "osm"}}, {"type": "Feature", "geometry": {"type": "Point", "coordinates": [-8.956223, 7.349506]}, "properties": {"id": "osm_n4515274570", "name": "\u00c9cole Primaire de Di\u00e9ck\u00e9", "level": "Unknown", "operator_type": null, "iso": "GIN", "country": "Guinea", "source": "osm"}}, {"type": "Feature", "geometry": {"type": "Point", "coordinates": [-8.958624, 7.358152]}, "properties": {"id": "osm_n4515274572", "name": "\u00c9cole Primaire Jm Williams", "level": "Unknown", "operator_type": null, "iso": "GIN", "country": "Guinea", "source": "osm"}}, {"type": "Feature", "geometry": {"type": "Point", "coordinates": [-8.958897, 7.358404]}, "properties": {"id": "osm_n4515274574", "name": "\u00c9cole Primaire Jm Williams", "level": "Unknown", "operator_type": null, "iso": "GIN", "country": "Guinea", "source": "osm"}}, {"type": "Feature", "geometry": {"type": "Point", "coordinates": [-8.956279, 7.358187]}, "properties": {"id": "osm_n4515274575", "name": "Lyc\u00e9e Di\u00e9ck\u00e9", "level": "Unknown", "operator_type": null, "iso": "GIN", "country": "Guinea", "source": "osm"}}, {"type": "Feature", "geometry": {"type": "Point", "coordinates": [-8.955779, 7.358067]}, "properties": {"id": "osm_n4515274576", "name": "Lyc\u00e9e Di\u00e9ck\u00e9", "level": "Unknown", "operator_type": null, "iso": "GIN", "country": "Guinea", "source": "osm"}}, {"type": "Feature", "geometry": {"type": "Point", "coordinates": [-12.715033, 9.447871]}, "properties": {"id": "osm_n4515278757", "name": "\u00c9cole Aboubacar Dimounir Diaby", "level": "Unknown", "operator_type": null, "iso": "GIN", "country": "Guinea", "source": "osm"}}, {"type": "Feature", "geometry": {"type": "Point", "coordinates": [-12.858092, 9.341382]}, "properties": {"id": "osm_n4515278758", "name": "\u00c9cole Primaire de Kafou", "level": "Unknown", "operator_type": null, "iso": "GIN", "country": "Guinea", "source": "osm"}}, {"type": "Feature", "geometry": {"type": "Point", "coordinates": [-12.764111, 9.368503]}, "properties": {"id": "osm_n4515278759", "name": "(unnamed)", "level": "Unknown", "operator_type": null, "iso": "GIN", "country": "Guinea", "source": "osm"}}, {"type": "Feature", "geometry": {"type": "Point", "coordinates": [-12.764477, 9.36894]}, "properties": {"id": "osm_n4515278760", "name": "(unnamed)", "level": "Unknown", "operator_type": null, "iso": "GIN", "country": "Guinea", "source": "osm"}}, {"type": "Feature", "geometry": {"type": "Point", "coordinates": [-12.858167, 9.340609]}, "properties": {"id": "osm_n4515278761", "name": "\u00c9cole Franco-arabe Abandonn\u00e9", "level": "Unknown", "operator_type": null, "iso": "GIN", "country": "Guinea", "source": "osm"}}, {"type": "Feature", "geometry": {"type": "Point", "coordinates": [-12.714175, 9.441781]}, "properties": {"id": "osm_n4515278762", "name": "\u00c9cole Primaire Frontalier Laya", "level": "Unknown", "operator_type": null, "iso": "GIN", "country": "Guinea", "source": "osm"}}, {"type": "Feature", "geometry": {"type": "Point", "coordinates": [-12.759349, 9.363937]}, "properties": {"id": "osm_n4515278763", "name": "\u00c9cole Franco Arabe", "level": "Unknown", "operator_type": null, "iso": "GIN", "country": "Guinea", "source": "osm"}}, {"type": "Feature", "geometry": {"type": "Point", "coordinates": [-11.69655, 10.053349]}, "properties": {"id": "osm_n4515280380", "name": "\u00c9cole Primaire Sitakoto", "level": "Unknown", "operator_type": null, "iso": "GIN", "country": "Guinea", "source": "osm"}}, {"type": "Feature", "geometry": {"type": "Point", "coordinates": [-11.700844, 10.047411]}, "properties": {"id": "osm_n4515280381", "name": "\u00c9cole Primaire", "level": "Unknown", "operator_type": null, "iso": "GIN", "country": "Guinea", "source": "osm"}}, {"type": "Feature", "geometry": {"type": "Point", "coordinates": [-12.809624, 9.610879]}, "properties": {"id": "osm_n4515281220", "name": "Franco Arabe", "level": "Unknown", "operator_type": null, "iso": "GIN", "country": "Guinea", "source": "osm"}}, {"type": "Feature", "geometry": {"type": "Point", "coordinates": [-12.809381, 9.609906]}, "properties": {"id": "osm_n4515281221", "name": "(unnamed)", "level": "Unknown", "operator_type": null, "iso": "GIN", "country": "Guinea", "source": "osm"}}, {"type": "Feature", "geometry": {"type": "Point", "coordinates": [-12.827277, 9.663767]}, "properties": {"id": "osm_n4515281222", "name": "\u00c9cole Primaire Dalonya", "level": "Unknown", "operator_type": null, "iso": "GIN", "country": "Guinea", "source": "osm"}}, {"type": "Feature", "geometry": {"type": "Point", "coordinates": [-12.809179, 9.609673]}, "properties": {"id": "osm_n4515281223", "name": "(unnamed)", "level": "Unknown", "operator_type": null, "iso": "GIN", "country": "Guinea", "source": "osm"}}, {"type": "Feature", "geometry": {"type": "Point", "coordinates": [-12.794599, 9.722632]}, "properties": {"id": "osm_n4515281224", "name": "\u00c9cole Primaire De Gombokhory", "level": "Unknown", "operator_type": null, "iso": "GIN", "country": "Guinea", "source": "osm"}}, {"type": "Feature", "geometry": {"type": "Point", "coordinates": [-12.079435, 10.370375]}, "properties": {"id": "osm_n4515284182", "name": "Groupe Scolaire Aad", "level": "Unknown", "operator_type": null, "iso": "GIN", "country": "Guinea", "source": "osm"}}, {"type": "Feature", "geometry": {"type": "Point", "coordinates": [-12.085079, 10.398307]}, "properties": {"id": "osm_n4515284183", "name": "Naroumba Kant\u00e9", "level": "Unknown", "operator_type": null, "iso": "GIN", "country": "Guinea", "source": "osm"}}, {"type": "Feature", "geometry": {"type": "Point", "coordinates": [-12.085894, 10.381243]}, "properties": {"id": "osm_n4515284185", "name": "Franco Arabe", "level": "Unknown", "operator_type": null, "iso": "GIN", "country": "Guinea", "source": "osm"}}, {"type": "Feature", "geometry": {"type": "Point", "coordinates": [-11.841823, 10.187936]}, "properties": {"id": "osm_n4515284342", "name": "Franco Arabe", "level": "Unknown", "operator_type": null, "iso": "GIN", "country": "Guinea", "source": "osm"}}, {"type": "Feature", "geometry": {"type": "Point", "coordinates": [-10.733609, 10.02302]}, "properties": {"id": "osm_n4515284695", "name": "\u00c9cole Primaire Du Camp", "level": "Unknown", "operator_type": null, "iso": "GIN", "country": "Guinea", "source": "osm"}}, {"type": "Feature", "geometry": {"type": "Point", "coordinates": [-10.733437, 10.02257]}, "properties": {"id": "osm_n4515284696", "name": "\u00c9cole Primaire Du Camp", "level": "Unknown", "operator_type": null, "iso": "GIN", "country": "Guinea", "source": "osm"}}, {"type": "Feature", "geometry": {"type": "Point", "coordinates": [-10.737114, 10.038578]}, "properties": {"id": "osm_n4515284699", "name": "\u00c9cole Priv\u00e9 Manian Moussa Conde", "level": "Unknown", "operator_type": null, "iso": "GIN", "country": "Guinea", "source": "osm"}}, {"type": "Feature", "geometry": {"type": "Point", "coordinates": [-10.752096, 10.054917]}, "properties": {"id": "osm_n4515284700", "name": "Virginie", "level": "Unknown", "operator_type": null, "iso": "GIN", "country": "Guinea", "source": "osm"}}, {"type": "Feature", "geometry": {"type": "Point", "coordinates": [-10.725343, 10.051099]}, "properties": {"id": "osm_n4515284701", "name": "\u00c9cole Primaire Abattoir 2", "level": "Unknown", "operator_type": null, "iso": "GIN", "country": "Guinea", "source": "osm"}}, {"type": "Feature", "geometry": {"type": "Point", "coordinates": [-10.725686, 10.051163]}, "properties": {"id": "osm_n4515284702", "name": "\u00c9cole Primaire Abattoir 2", "level": "Unknown", "operator_type": null, "iso": "GIN", "country": "Guinea", "source": "osm"}}, {"type": "Feature", "geometry": {"type": "Point", "coordinates": [-10.738759, 10.052136]}, "properties": {"id": "osm_n4515284703", "name": "\u00c9cole primaire de Mondlan", "level": "Unknown", "operator_type": null, "iso": "GIN", "country": "Guinea", "source": "osm"}}, {"type": "Feature", "geometry": {"type": "Point", "coordinates": [-10.725344, 10.050827]}, "properties": {"id": "osm_n4515284705", "name": "\u00c9cole Primaire Abattoir 2", "level": "Unknown", "operator_type": null, "iso": "GIN", "country": "Guinea", "source": "osm"}}, {"type": "Feature", "geometry": {"type": "Point", "coordinates": [-10.7386, 10.051909]}, "properties": {"id": "osm_n4515284706", "name": "Mondilan", "level": "Unknown", "operator_type": null, "iso": "GIN", "country": "Guinea", "source": "osm"}}, {"type": "Feature", "geometry": {"type": "Point", "coordinates": [-10.739091, 10.052258]}, "properties": {"id": "osm_n4515284707", "name": "Mondilan", "level": "Unknown", "operator_type": null, "iso": "GIN", "country": "Guinea", "source": "osm"}}, {"type": "Feature", "geometry": {"type": "Point", "coordinates": [-10.736687, 10.037149]}, "properties": {"id": "osm_n4515284708", "name": "Franco Arabe", "level": "Unknown", "operator_type": null, "iso": "GIN", "country": "Guinea", "source": "osm"}}, {"type": "Feature", "geometry": {"type": "Point", "coordinates": [-10.731459, 10.035667]}, "properties": {"id": "osm_n4515284709", "name": "\u00c9cole Primaire Amilcar Cabral", "level": "Unknown", "operator_type": null, "iso": "GIN", "country": "Guinea", "source": "osm"}}, {"type": "Feature", "geometry": {"type": "Point", "coordinates": [-10.878211, 9.722709]}, "properties": {"id": "osm_n4515284986", "name": "\u00c9cole de Madrassa", "level": "Unknown", "operator_type": null, "iso": "GIN", "country": "Guinea", "source": "osm"}}, {"type": "Feature", "geometry": {"type": "Point", "coordinates": [-10.465274, 8.949586]}, "properties": {"id": "osm_n4515285277", "name": "Latrines de l'\u00e9cole Primaire de Yomadou Doukono", "level": "Unknown", "operator_type": null, "iso": "GIN", "country": "Guinea", "source": "osm"}}, {"type": "Feature", "geometry": {"type": "Point", "coordinates": [-10.539366, 9.210603]}, "properties": {"id": "osm_n4515285406", "name": "\u00c9cole Primaire De Kobikoro", "level": "Unknown", "operator_type": null, "iso": "GIN", "country": "Guinea", "source": "osm"}}, {"type": "Feature", "geometry": {"type": "Point", "coordinates": [-10.544749, 9.214941]}, "properties": {"id": "osm_n4515285407", "name": "(unnamed)", "level": "Unknown", "operator_type": null, "iso": "GIN", "country": "Guinea", "source": "osm"}}, {"type": "Feature", "geometry": {"type": "Point", "coordinates": [-10.100997, 9.170165]}, "properties": {"id": "osm_n4515288064", "name": "\u00c9cole Primaire Priv\u00e9e", "level": "Unknown", "operator_type": null, "iso": "GIN", "country": "Guinea", "source": "osm"}}, {"type": "Feature", "geometry": {"type": "Point", "coordinates": [-10.100685, 9.170255]}, "properties": {"id": "osm_n4515288065", "name": "\u00c9cole Primaire Priv\u00e9e", "level": "Unknown", "operator_type": null, "iso": "GIN", "country": "Guinea", "source": "osm"}}, {"type": "Feature", "geometry": {"type": "Point", "coordinates": [-10.402304, 8.635037]}, "properties": {"id": "osm_n4515288086", "name": "\u00c9cole Primaire De Koundou", "level": "Unknown", "operator_type": null, "iso": "GIN", "country": "Guinea", "source": "osm"}}, {"type": "Feature", "geometry": {"type": "Point", "coordinates": [-10.40289, 8.635191]}, "properties": {"id": "osm_n4515288087", "name": "Latrine de L'\u00e9cole Primaire de Koundou Bengou", "level": "Unknown", "operator_type": null, "iso": "GIN", "country": "Guinea", "source": "osm"}}, {"type": "Feature", "geometry": {"type": "Point", "coordinates": [-10.25739, 8.613401]}, "properties": {"id": "osm_n4515288291", "name": "\u00c9cole Primaire De Mongo", "level": "Unknown", "operator_type": null, "iso": "GIN", "country": "Guinea", "source": "osm"}}, {"type": "Feature", "geometry": {"type": "Point", "coordinates": [-10.263836, 8.612902]}, "properties": {"id": "osm_n4515288294", "name": "\u00c9cole Primaire De Mongo 2", "level": "Unknown", "operator_type": null, "iso": "GIN", "country": "Guinea", "source": "osm"}}, {"type": "Feature", "geometry": {"type": "Point", "coordinates": [-9.694558, 8.665146]}, "properties": {"id": "osm_n4515288339", "name": "\u00c9cole Primaire de Boffosou", "level": "Unknown", "operator_type": null, "iso": "GIN", "country": "Guinea", "source": "osm"}}, {"type": "Feature", "geometry": {"type": "Point", "coordinates": [-10.233909, 8.527558]}, "properties": {"id": "osm_n4515288533", "name": "\u00c9cole Primaire De Teldou", "level": "Unknown", "operator_type": null, "iso": "GIN", "country": "Guinea", "source": "osm"}}, {"type": "Feature", "geometry": {"type": "Point", "coordinates": [-10.233619, 8.527653]}, "properties": {"id": "osm_n4515288534", "name": "\u00c9cole Primaire De Teldou", "level": "Unknown", "operator_type": null, "iso": "GIN", "country": "Guinea", "source": "osm"}}, {"type": "Feature", "geometry": {"type": "Point", "coordinates": [-9.460888, 8.546057]}, "properties": {"id": "osm_n4515290502", "name": "\u00c9cole Primaire Franco Arabe", "level": "Unknown", "operator_type": null, "iso": "GIN", "country": "Guinea", "source": "osm"}}, {"type": "Feature", "geometry": {"type": "Point", "coordinates": [-9.456116, 8.552732]}, "properties": {"id": "osm_n4515290503", "name": "\u00c9cole Franco Arabe", "level": "Unknown", "operator_type": null, "iso": "GIN", "country": "Guinea", "source": "osm"}}, {"type": "Feature", "geometry": {"type": "Point", "coordinates": [-9.453683, 8.54733]}, "properties": {"id": "osm_n4515290504", "name": "(unnamed)", "level": "Unknown", "operator_type": null, "iso": "GIN", "country": "Guinea", "source": "osm"}}, {"type": "Feature", "geometry": {"type": "Point", "coordinates": [-9.453446, 8.551623]}, "properties": {"id": "osm_n4515290505", "name": "(unnamed)", "level": "Unknown", "operator_type": null, "iso": "GIN", "country": "Guinea", "source": "osm"}}, {"type": "Feature", "geometry": {"type": "Point", "coordinates": [-9.460647, 8.549265]}, "properties": {"id": "osm_n4515290506", "name": "\u00c9cole Coranique", "level": "Unknown", "operator_type": null, "iso": "GIN", "country": "Guinea", "source": "osm"}}, {"type": "Feature", "geometry": {"type": "Point", "coordinates": [-9.452708, 8.554133]}, "properties": {"id": "osm_n4515290507", "name": "\u00c9coles Primaires Franco Arabe", "level": "Unknown", "operator_type": null, "iso": "GIN", "country": "Guinea", "source": "osm"}}, {"type": "Feature", "geometry": {"type": "Point", "coordinates": [-9.453226, 8.551385]}, "properties": {"id": "osm_n4515290508", "name": "(unnamed)", "level": "Unknown", "operator_type": null, "iso": "GIN", "country": "Guinea", "source": "osm"}}, {"type": "Feature", "geometry": {"type": "Point", "coordinates": [-9.453078, 8.550971]}, "properties": {"id": "osm_n4515290510", "name": "(unnamed)", "level": "Unknown", "operator_type": null, "iso": "GIN", "country": "Guinea", "source": "osm"}}, {"type": "Feature", "geometry": {"type": "Point", "coordinates": [-9.372765, 7.816122]}, "properties": {"id": "osm_n4515290615", "name": "\u00c9cole Primaire De Oulima\u00ef", "level": "Unknown", "operator_type": null, "iso": "GIN", "country": "Guinea", "source": "osm"}}, {"type": "Feature", "geometry": {"type": "Point", "coordinates": [-9.26801, 7.717139]}, "properties": {"id": "osm_n4515291058", "name": "\u00c9cole Primaire de Bamakama", "level": "Unknown", "operator_type": null, "iso": "GIN", "country": "Guinea", "source": "osm"}}, {"type": "Feature", "geometry": {"type": "Point", "coordinates": [-9.267751, 7.71713]}, "properties": {"id": "osm_n4515291059", "name": "\u00c9cole Primaire de Bamakama", "level": "Unknown", "operator_type": null, "iso": "GIN", "country": "Guinea", "source": "osm"}}, {"type": "Feature", "geometry": {"type": "Point", "coordinates": [-9.267898, 7.71725]}, "properties": {"id": "osm_n4515291060", "name": "\u00c9cole Primaire de Bamakama", "level": "Unknown", "operator_type": null, "iso": "GIN", "country": "Guinea", "source": "osm"}}, {"type": "Feature", "geometry": {"type": "Point", "coordinates": [-9.104276, 7.850503]}, "properties": {"id": "osm_n4515292858", "name": "\u00c9cole Primaire Woro Yile", "level": "Unknown", "operator_type": null, "iso": "GIN", "country": "Guinea", "source": "osm"}}, {"type": "Feature", "geometry": {"type": "Point", "coordinates": [-9.104108, 7.851023]}, "properties": {"id": "osm_n4515292859", "name": "\u00c9cole Primaire Woro Yile", "level": "Unknown", "operator_type": null, "iso": "GIN", "country": "Guinea", "source": "osm"}}, {"type": "Feature", "geometry": {"type": "Point", "coordinates": [-9.103883, 7.85054]}, "properties": {"id": "osm_n4515292860", "name": "\u00c9cole Primaire Woro Yile", "level": "Unknown", "operator_type": null, "iso": "GIN", "country": "Guinea", "source": "osm"}}, {"type": "Feature", "geometry": {"type": "Point", "coordinates": [-8.817396, 7.759738]}, "properties": {"id": "osm_n4515293219", "name": "(unnamed)", "level": "Unknown", "operator_type": null, "iso": "GIN", "country": "Guinea", "source": "osm"}}, {"type": "Feature", "geometry": {"type": "Point", "coordinates": [-8.811553, 7.766683]}, "properties": {"id": "osm_n4515293223", "name": "Groupe Scolaire de Iroko", "level": "Unknown", "operator_type": null, "iso": "GIN", "country": "Guinea", "source": "osm"}}, {"type": "Feature", "geometry": {"type": "Point", "coordinates": [-8.818422, 7.791113]}, "properties": {"id": "osm_n4515293225", "name": "\u00c9cole Primaire Boma Sud", "level": "Unknown", "operator_type": null, "iso": "GIN", "country": "Guinea", "source": "osm"}}, {"type": "Feature", "geometry": {"type": "Point", "coordinates": [-8.829486, 7.799875]}, "properties": {"id": "osm_n4515293226", "name": "Jardin d'enfants SOS", "level": "Unknown", "operator_type": null, "iso": "GIN", "country": "Guinea", "source": "osm"}}, {"type": "Feature", "geometry": {"type": "Point", "coordinates": [-9.055256, 7.259135]}, "properties": {"id": "osm_n4515293747", "name": "Soopa Refugee School", "level": "Unknown", "operator_type": null, "iso": "GIN", "country": "Guinea", "source": "osm"}}, {"type": "Feature", "geometry": {"type": "Point", "coordinates": [-9.055055, 7.259264]}, "properties": {"id": "osm_n4515293748", "name": "Soopa Refugee School", "level": "Unknown", "operator_type": null, "iso": "GIN", "country": "Guinea", "source": "osm"}}, {"type": "Feature", "geometry": {"type": "Point", "coordinates": [-9.054817, 7.259201]}, "properties": {"id": "osm_n4515293749", "name": "Soopa Refugee School", "level": "Unknown", "operator_type": null, "iso": "GIN", "country": "Guinea", "source": "osm"}}, {"type": "Feature", "geometry": {"type": "Point", "coordinates": [-8.585741, 7.835242]}, "properties": {"id": "osm_n4515294267", "name": "Centre d'alphab\u00e9tisation de Gama Konikoni", "level": "Unknown", "operator_type": null, "iso": "GIN", "country": "Guinea", "source": "osm"}}, {"type": "Feature", "geometry": {"type": "Point", "coordinates": [-8.590214, 7.836884]}, "properties": {"id": "osm_n4515294268", "name": "(unnamed)", "level": "Unknown", "operator_type": null, "iso": "GIN", "country": "Guinea", "source": "osm"}}, {"type": "Feature", "geometry": {"type": "Point", "coordinates": [-8.585504, 7.836258]}, "properties": {"id": "osm_n4515294269", "name": "\u00c9cole Primaire de Gamakonikoni", "level": "Unknown", "operator_type": null, "iso": "GIN", "country": "Guinea", "source": "osm"}}, {"type": "Feature", "geometry": {"type": "Point", "coordinates": [-8.646193, 7.814431]}, "properties": {"id": "osm_n4515294383", "name": "(unnamed)", "level": "Unknown", "operator_type": null, "iso": "GIN", "country": "Guinea", "source": "osm"}}, {"type": "Feature", "geometry": {"type": "Point", "coordinates": [-8.699399, 7.802491]}, "properties": {"id": "osm_n4515294384", "name": "\u00c9cole Primaire De Konia Aviation", "level": "Unknown", "operator_type": null, "iso": "GIN", "country": "Guinea", "source": "osm"}}, {"type": "Feature", "geometry": {"type": "Point", "coordinates": [-8.699091, 7.802463]}, "properties": {"id": "osm_n4515294385", "name": "\u00c9cole Primaire De Konia Aviation", "level": "Unknown", "operator_type": null, "iso": "GIN", "country": "Guinea", "source": "osm"}}, {"type": "Feature", "geometry": {"type": "Point", "coordinates": [-9.336915, 10.372001]}, "properties": {"id": "osm_n4519867556", "name": "\u00c9cole Agricole", "level": "Unknown", "operator_type": null, "iso": "GIN", "country": "Guinea", "source": "osm"}}, {"type": "Feature", "geometry": {"type": "Point", "coordinates": [-12.287534, 11.31803]}, "properties": {"id": "osm_n4524066162", "name": "La P\u00e9pini\u00e8re", "level": "Unknown", "operator_type": "private", "iso": "GIN", "country": "Guinea", "source": "osm"}}, {"type": "Feature", "geometry": {"type": "Point", "coordinates": [-13.715582, 9.511265]}, "properties": {"id": "osm_n4525500409", "name": "lyc\u00e9e 2 octobre", "level": "Unknown", "operator_type": null, "iso": "GIN", "country": "Guinea", "source": "osm"}}, {"type": "Feature", "geometry": {"type": "Point", "coordinates": [-13.031816, 10.915709]}, "properties": {"id": "osm_n4554062264", "name": "coll\u00e8ge de Koly", "level": "Unknown", "operator_type": null, "iso": "GIN", "country": "Guinea", "source": "osm"}}, {"type": "Feature", "geometry": {"type": "Point", "coordinates": [-13.033674, 10.908795]}, "properties": {"id": "osm_n4554064171", "name": "\u00e9cole primaire du centre", "level": "Unknown", "operator_type": null, "iso": "GIN", "country": "Guinea", "source": "osm"}}, {"type": "Feature", "geometry": {"type": "Point", "coordinates": [-13.032665, 10.915907]}, "properties": {"id": "osm_n4554064172", "name": "coll\u00e8ge franco-arabe", "level": "Unknown", "operator_type": null, "iso": "GIN", "country": "Guinea", "source": "osm"}}, {"type": "Feature", "geometry": {"type": "Point", "coordinates": [-12.896861, 10.239237]}, "properties": {"id": "osm_n4554064997", "name": "\u00e9cole primaire de bagueya", "level": "Unknown", "operator_type": null, "iso": "GIN", "country": "Guinea", "source": "osm"}}, {"type": "Feature", "geometry": {"type": "Point", "coordinates": [-12.874477, 10.167945]}, "properties": {"id": "osm_n4554065211", "name": "\u00c9cole primaire de koumbaya", "level": "Unknown", "operator_type": null, "iso": "GIN", "country": "Guinea", "source": "osm"}}, {"type": "Feature", "geometry": {"type": "Point", "coordinates": [-13.015977, 11.020961]}, "properties": {"id": "osm_n4563986352", "name": "Lyc\u00e9e coll\u00e8ge por\u00e9 kir\u00e9", "level": "Unknown", "operator_type": null, "iso": "GIN", "country": "Guinea", "source": "osm"}}, {"type": "Feature", "geometry": {"type": "Point", "coordinates": [-13.651195, 9.584558]}, "properties": {"id": "osm_n4582101334", "name": "\u00e9cole primaire", "level": "Unknown", "operator_type": null, "iso": "GIN", "country": "Guinea", "source": "osm"}}, {"type": "Feature", "geometry": {"type": "Point", "coordinates": [-13.600614, 9.623574]}, "properties": {"id": "osm_n4764505924", "name": "Groupe scolaire Abdoul Malick Diallo", "level": "Unknown", "operator_type": null, "iso": "GIN", "country": "Guinea", "source": "osm"}}, {"type": "Feature", "geometry": {"type": "Point", "coordinates": [-12.532082, 11.214703]}, "properties": {"id": "osm_n4783803802", "name": "Ecole Laabha", "level": "Unknown", "operator_type": null, "iso": "GIN", "country": "Guinea", "source": "osm"}}, {"type": "Feature", "geometry": {"type": "Point", "coordinates": [-13.347245, 9.76473]}, "properties": {"id": "osm_n4829699989", "name": "Institut th\u00e9ologique pastoral", "level": "Unknown", "operator_type": null, "iso": "GIN", "country": "Guinea", "source": "osm"}}, {"type": "Feature", "geometry": {"type": "Point", "coordinates": [-10.302677, 9.086794]}, "properties": {"id": "osm_n4858131098", "name": "\u00c9cole", "level": "Unknown", "operator_type": null, "iso": "GIN", "country": "Guinea", "source": "osm"}}, {"type": "Feature", "geometry": {"type": "Point", "coordinates": [-9.891824, 10.657282]}, "properties": {"id": "osm_n4954878359", "name": "ecole", "level": "Unknown", "operator_type": null, "iso": "GIN", "country": "Guinea", "source": "osm"}}, {"type": "Feature", "geometry": {"type": "Point", "coordinates": [-12.392982, 12.125018]}, "properties": {"id": "osm_n5013475691", "name": "ecole", "level": "Unknown", "operator_type": null, "iso": "GIN", "country": "Guinea", "source": "osm"}}, {"type": "Feature", "geometry": {"type": "Point", "coordinates": [-12.325091, 11.990326]}, "properties": {"id": "osm_n5013477460", "name": "ep", "level": "Unknown", "operator_type": null, "iso": "GIN", "country": "Guinea", "source": "osm"}}, {"type": "Feature", "geometry": {"type": "Point", "coordinates": [-14.047496, 10.405373]}, "properties": {"id": "osm_n5024337823", "name": "Coll\u00e8ge de Coliah", "level": "Unknown", "operator_type": null, "iso": "GIN", "country": "Guinea", "source": "osm"}}, {"type": "Feature", "geometry": {"type": "Point", "coordinates": [-8.523704, 7.806797]}, "properties": {"id": "osm_n5189104423", "name": "Ecole primaire Tinhen boulou", "level": "Unknown", "operator_type": null, "iso": "GIN", "country": "Guinea", "source": "osm"}}, {"type": "Feature", "geometry": {"type": "Point", "coordinates": [-12.679427, 11.419812]}, "properties": {"id": "osm_n5206284190", "name": "Lyc\u00e9e Di\u00e2la", "level": "Unknown", "operator_type": null, "iso": "GIN", "country": "Guinea", "source": "osm"}}, {"type": "Feature", "geometry": {"type": "Point", "coordinates": [-13.660902, 9.579065]}, "properties": {"id": "osm_n5222788522", "name": "CS Sylla Lamine", "level": "Unknown", "operator_type": null, "iso": "GIN", "country": "Guinea", "source": "osm"}}, {"type": "Feature", "geometry": {"type": "Point", "coordinates": [-13.663134, 9.584898]}, "properties": {"id": "osm_n5222788523", "name": "MOLASY Primaire", "level": "Unknown", "operator_type": null, "iso": "GIN", "country": "Guinea", "source": "osm"}}, {"type": "Feature", "geometry": {"type": "Point", "coordinates": [-12.736819, 11.403422]}, "properties": {"id": "osm_n5224779805", "name": "Ecole primaire Gadha dara", "level": "Unknown", "operator_type": null, "iso": "GIN", "country": "Guinea", "source": "osm"}}, {"type": "Feature", "geometry": {"type": "Point", "coordinates": [-13.597531, 9.598855]}, "properties": {"id": "osm_n5226309156", "name": "\u00e9cole franco-arabe", "level": "Unknown", "operator_type": null, "iso": "GIN", "country": "Guinea", "source": "osm"}}, {"type": "Feature", "geometry": {"type": "Point", "coordinates": [-13.516166, 9.689867]}, "properties": {"id": "osm_n5235435660", "name": "GS Jacques 1er", "level": "Unknown", "operator_type": null, "iso": "GIN", "country": "Guinea", "source": "osm"}}, {"type": "Feature", "geometry": {"type": "Point", "coordinates": [-13.516291, 9.690427]}, "properties": {"id": "osm_n5235438337", "name": "GS Baba Ciss\u00e9", "level": "Unknown", "operator_type": null, "iso": "GIN", "country": "Guinea", "source": "osm"}}, {"type": "Feature", "geometry": {"type": "Point", "coordinates": [-12.825164, 11.272837]}, "properties": {"id": "osm_n5236619467", "name": "Ecole Primaire", "level": "Unknown", "operator_type": null, "iso": "GIN", "country": "Guinea", "source": "osm"}}, {"type": "Feature", "geometry": {"type": "Point", "coordinates": [-14.273596, 10.96021]}, "properties": {"id": "osm_n5251291897", "name": "CS Hadja Bintou Tour\u00e9", "level": "Unknown", "operator_type": null, "iso": "GIN", "country": "Guinea", "source": "osm"}}, {"type": "Feature", "geometry": {"type": "Point", "coordinates": [-13.50842, 9.690642]}, "properties": {"id": "osm_n5263700116", "name": "GS Hadja Fatoumata Katty", "level": "Unknown", "operator_type": null, "iso": "GIN", "country": "Guinea", "source": "osm"}}, {"type": "Feature", "geometry": {"type": "Point", "coordinates": [-13.50699, 9.690321]}, "properties": {"id": "osm_n5263701159", "name": "GS Ibrahima Kalil Camara", "level": "Unknown", "operator_type": null, "iso": "GIN", "country": "Guinea", "source": "osm"}}, {"type": "Feature", "geometry": {"type": "Point", "coordinates": [-13.61724, 9.608151]}, "properties": {"id": "osm_n5282247484", "name": "CS Oumou diaby", "level": "Unknown", "operator_type": null, "iso": "GIN", "country": "Guinea", "source": "osm"}}, {"type": "Feature", "geometry": {"type": "Point", "coordinates": [-13.523105, 9.695141]}, "properties": {"id": "osm_n5310257526", "name": "GS D.E.N", "level": "Unknown", "operator_type": null, "iso": "GIN", "country": "Guinea", "source": "osm"}}, {"type": "Feature", "geometry": {"type": "Point", "coordinates": [-13.558597, 9.6797]}, "properties": {"id": "osm_n5377480025", "name": "GS Hadja N'Gady Bangoura", "level": "Unknown", "operator_type": null, "iso": "GIN", "country": "Guinea", "source": "osm"}}, {"type": "Feature", "geometry": {"type": "Point", "coordinates": [-13.584258, 9.621925]}, "properties": {"id": "osm_n5425641699", "name": "GS Gangan Kaniya", "level": "Unknown", "operator_type": null, "iso": "GIN", "country": "Guinea", "source": "osm"}}, {"type": "Feature", "geometry": {"type": "Point", "coordinates": [-13.598297, 9.608144]}, "properties": {"id": "osm_n5425641799", "name": "Complexe Scolaire & Universit\u00e9 Nelson Mandela", "level": "Unknown", "operator_type": null, "iso": "GIN", "country": "Guinea", "source": "osm"}}, {"type": "Feature", "geometry": {"type": "Point", "coordinates": [-13.664886, 9.562739]}, "properties": {"id": "osm_n5489303157", "name": "GS la p\u00e9pini\u00e8re BIKAZ", "level": "Unknown", "operator_type": null, "iso": "GIN", "country": "Guinea", "source": "osm"}}, {"type": "Feature", "geometry": {"type": "Point", "coordinates": [-13.66472, 9.567588]}, "properties": {"id": "osm_n5489304721", "name": "CS SYLLA Lamine", "level": "Unknown", "operator_type": null, "iso": "GIN", "country": "Guinea", "source": "osm"}}, {"type": "Feature", "geometry": {"type": "Point", "coordinates": [-13.650596, 9.548565]}, "properties": {"id": "osm_n5494057123", "name": "GS le Bobels", "level": "Unknown", "operator_type": null, "iso": "GIN", "country": "Guinea", "source": "osm"}}, {"type": "Feature", "geometry": {"type": "Point", "coordinates": [-13.64352, 9.554827]}, "properties": {"id": "osm_n5494058815", "name": "Lyc\u00e9e franco Arabe Matam", "level": "Unknown", "operator_type": null, "iso": "GIN", "country": "Guinea", "source": "osm"}}, {"type": "Feature", "geometry": {"type": "Point", "coordinates": [-13.651217, 9.548426]}, "properties": {"id": "osm_n5494059662", "name": "GS Humaniste Thomas Sankara", "level": "Unknown", "operator_type": null, "iso": "GIN", "country": "Guinea", "source": "osm"}}, {"type": "Feature", "geometry": {"type": "Point", "coordinates": [-13.671025, 9.537494]}, "properties": {"id": "osm_n5494060026", "name": "\u00c9cole primaire Alexandre Bour\u00e9", "level": "Unknown", "operator_type": null, "iso": "GIN", "country": "Guinea", "source": "osm"}}, {"type": "Feature", "geometry": {"type": "Point", "coordinates": [-13.635235, 9.564391]}, "properties": {"id": "osm_n5494060525", "name": "Saint Michel", "level": "Unknown", "operator_type": null, "iso": "GIN", "country": "Guinea", "source": "osm"}}, {"type": "Feature", "geometry": {"type": "Point", "coordinates": [-13.640362, 9.55826]}, "properties": {"id": "osm_n5494060673", "name": "GS Youla Mouhamed", "level": "Unknown", "operator_type": null, "iso": "GIN", "country": "Guinea", "source": "osm"}}, {"type": "Feature", "geometry": {"type": "Point", "coordinates": [-13.640063, 9.557843]}, "properties": {"id": "osm_n5494060674", "name": "GS Aicha FOFANA", "level": "Unknown", "operator_type": null, "iso": "GIN", "country": "Guinea", "source": "osm"}}, {"type": "Feature", "geometry": {"type": "Point", "coordinates": [-13.610025, 9.588826]}, "properties": {"id": "osm_n5499365009", "name": "GS Rougui BARRY", "level": "Unknown", "operator_type": null, "iso": "GIN", "country": "Guinea", "source": "osm"}}, {"type": "Feature", "geometry": {"type": "Point", "coordinates": [-13.602727, 9.600038]}, "properties": {"id": "osm_n5511948490", "name": "GS Jean Mermose", "level": "Unknown", "operator_type": null, "iso": "GIN", "country": "Guinea", "source": "osm"}}, {"type": "Feature", "geometry": {"type": "Point", "coordinates": [-13.548497, 9.649198]}, "properties": {"id": "osm_n5511951096", "name": "GS Ramata DEDE", "level": "Unknown", "operator_type": null, "iso": "GIN", "country": "Guinea", "source": "osm"}}, {"type": "Feature", "geometry": {"type": "Point", "coordinates": [-13.631876, 9.581701]}, "properties": {"id": "osm_n5511952831", "name": "GS Amadou Mido", "level": "Unknown", "operator_type": null, "iso": "GIN", "country": "Guinea", "source": "osm"}}, {"type": "Feature", "geometry": {"type": "Point", "coordinates": [-13.631673, 9.584541]}, "properties": {"id": "osm_n5511952836", "name": "Solidarity Academy of Bambeto", "level": "Unknown", "operator_type": null, "iso": "GIN", "country": "Guinea", "source": "osm"}}, {"type": "Feature", "geometry": {"type": "Point", "coordinates": [-13.654071, 9.580612]}, "properties": {"id": "osm_n5514096763", "name": "Groupe scolaire Pierre Barbara Sylla", "level": "Unknown", "operator_type": null, "iso": "GIN", "country": "Guinea", "source": "osm"}}, {"type": "Feature", "geometry": {"type": "Point", "coordinates": [-13.595401, 9.623675]}, "properties": {"id": "osm_n5522081156", "name": "GS Habe bebe", "level": "Unknown", "operator_type": null, "iso": "GIN", "country": "Guinea", "source": "osm"}}, {"type": "Feature", "geometry": {"type": "Point", "coordinates": [-13.646373, 9.605923]}, "properties": {"id": "osm_n5528598475", "name": "GS la Grace divine", "level": "Unknown", "operator_type": null, "iso": "GIN", "country": "Guinea", "source": "osm"}}, {"type": "Feature", "geometry": {"type": "Point", "coordinates": [-13.656928, 9.591841]}, "properties": {"id": "osm_n5528603190", "name": "Tom Pouce", "level": "Unknown", "operator_type": null, "iso": "GIN", "country": "Guinea", "source": "osm"}}, {"type": "Feature", "geometry": {"type": "Point", "coordinates": [-13.667158, 9.552261]}, "properties": {"id": "osm_n5550523566", "name": "GS Saint Joseph de L'excellence", "level": "Unknown", "operator_type": null, "iso": "GIN", "country": "Guinea", "source": "osm"}}, {"type": "Feature", "geometry": {"type": "Point", "coordinates": [-13.67827, 9.548522]}, "properties": {"id": "osm_n5550525204", "name": "GS Atlantique", "level": "Unknown", "operator_type": null, "iso": "GIN", "country": "Guinea", "source": "osm"}}, {"type": "Feature", "geometry": {"type": "Point", "coordinates": [-13.658631, 9.559475]}, "properties": {"id": "osm_n5550525258", "name": "GS Unit\u00e9 Africaine", "level": "Unknown", "operator_type": null, "iso": "GIN", "country": "Guinea", "source": "osm"}}, {"type": "Feature", "geometry": {"type": "Point", "coordinates": [-13.666567, 9.553284]}, "properties": {"id": "osm_n5550525558", "name": "GS Cheick Cherif Sagale", "level": "Unknown", "operator_type": null, "iso": "GIN", "country": "Guinea", "source": "osm"}}, {"type": "Feature", "geometry": {"type": "Point", "coordinates": [-13.669059, 9.554695]}, "properties": {"id": "osm_n5550527555", "name": "GS Ibrahima Baba KAKE", "level": "Unknown", "operator_type": null, "iso": "GIN", "country": "Guinea", "source": "osm"}}, {"type": "Feature", "geometry": {"type": "Point", "coordinates": [-13.627927, 9.571477]}, "properties": {"id": "osm_n5597288812", "name": "GS la Sorbonne", "level": "Unknown", "operator_type": null, "iso": "GIN", "country": "Guinea", "source": "osm"}}, {"type": "Feature", "geometry": {"type": "Point", "coordinates": [-13.628816, 9.570944]}, "properties": {"id": "osm_n5597292534", "name": "Les \u00e9coles All\u00e9luia", "level": "Unknown", "operator_type": null, "iso": "GIN", "country": "Guinea", "source": "osm"}}, {"type": "Feature", "geometry": {"type": "Point", "coordinates": [-13.642815, 9.615275]}, "properties": {"id": "osm_n5611986206", "name": "\u00c9cole M'mah Tirank\u00e9 Keita", "level": "Unknown", "operator_type": null, "iso": "GIN", "country": "Guinea", "source": "osm"}}, {"type": "Feature", "geometry": {"type": "Point", "coordinates": [-13.659525, 9.550359]}, "properties": {"id": "osm_n5612804784", "name": "Arche ABC", "level": "Unknown", "operator_type": null, "iso": "GIN", "country": "Guinea", "source": "osm"}}, {"type": "Feature", "geometry": {"type": "Point", "coordinates": [-13.504574, 9.715354]}, "properties": {"id": "osm_n5644903108", "name": "GSP bassins versants de Guin\u00e9e", "level": "Unknown", "operator_type": null, "iso": "GIN", "country": "Guinea", "source": "osm"}}, {"type": "Feature", "geometry": {"type": "Point", "coordinates": [-13.513187, 9.687068]}, "properties": {"id": "osm_n5644903889", "name": "GS Kadiatou Bald\u00e9 Fatako", "level": "Unknown", "operator_type": null, "iso": "GIN", "country": "Guinea", "source": "osm"}}, {"type": "Feature", "geometry": {"type": "Point", "coordinates": [-13.514548, 9.681918]}, "properties": {"id": "osm_n5651380085", "name": "IFAG", "level": "Unknown", "operator_type": null, "iso": "GIN", "country": "Guinea", "source": "osm"}}, {"type": "Feature", "geometry": {"type": "Point", "coordinates": [-13.526194, 9.667068]}, "properties": {"id": "osm_n5656611533", "name": "GS la tourterelle", "level": "Unknown", "operator_type": null, "iso": "GIN", "country": "Guinea", "source": "osm"}}, {"type": "Feature", "geometry": {"type": "Point", "coordinates": [-13.558977, 9.652933]}, "properties": {"id": "osm_n5670049601", "name": "GS St Joseph Ouvrier", "level": "Unknown", "operator_type": null, "iso": "GIN", "country": "Guinea", "source": "osm"}}, {"type": "Feature", "geometry": {"type": "Point", "coordinates": [-13.612348, 9.642491]}, "properties": {"id": "osm_n5697180971", "name": "Les castors", "level": "Unknown", "operator_type": null, "iso": "GIN", "country": "Guinea", "source": "osm"}}, {"type": "Feature", "geometry": {"type": "Point", "coordinates": [-13.613428, 9.64754]}, "properties": {"id": "osm_n5697184336", "name": "JBL", "level": "Unknown", "operator_type": null, "iso": "GIN", "country": "Guinea", "source": "osm"}}, {"type": "Feature", "geometry": {"type": "Point", "coordinates": [-13.621438, 9.635506]}, "properties": {"id": "osm_n5697184337", "name": "Cours priv\u00e9s Roland Pr\u00e9", "level": "Unknown", "operator_type": null, "iso": "GIN", "country": "Guinea", "source": "osm"}}, {"type": "Feature", "geometry": {"type": "Point", "coordinates": [-13.613575, 9.646327]}, "properties": {"id": "osm_n5697184988", "name": "GS dame de la paix", "level": "Unknown", "operator_type": null, "iso": "GIN", "country": "Guinea", "source": "osm"}}, {"type": "Feature", "geometry": {"type": "Point", "coordinates": [-13.64368, 9.613119]}, "properties": {"id": "osm_n5697184990", "name": "Les Dauphins", "level": "Unknown", "operator_type": null, "iso": "GIN", "country": "Guinea", "source": "osm"}}, {"type": "Feature", "geometry": {"type": "Point", "coordinates": [-13.596209, 9.661468]}, "properties": {"id": "osm_n5697184997", "name": "CS El Hadj Naby Bangoura", "level": "Unknown", "operator_type": null, "iso": "GIN", "country": "Guinea", "source": "osm"}}, {"type": "Feature", "geometry": {"type": "Point", "coordinates": [-13.644501, 9.611975]}, "properties": {"id": "osm_n5697185071", "name": "GS Saint Joseph Kaporo", "level": "Unknown", "operator_type": null, "iso": "GIN", "country": "Guinea", "source": "osm"}}, {"type": "Feature", "geometry": {"type": "Point", "coordinates": [-13.535277, 9.654153]}, "properties": {"id": "osm_n5721451265", "name": "\u00c9cole primaire publique de Dabompa", "level": "Unknown", "operator_type": null, "iso": "GIN", "country": "Guinea", "source": "osm"}}, {"type": "Feature", "geometry": {"type": "Point", "coordinates": [-12.488719, 11.594495]}, "properties": {"id": "osm_n5732000415", "name": "Ecole primaire de Logouma", "level": "Unknown", "operator_type": null, "iso": "GIN", "country": "Guinea", "source": "osm"}}, {"type": "Feature", "geometry": {"type": "Point", "coordinates": [-13.673992, 9.538461]}, "properties": {"id": "osm_n5739440967", "name": "GS Lady Diana", "level": "Unknown", "operator_type": null, "iso": "GIN", "country": "Guinea", "source": "osm"}}, {"type": "Feature", "geometry": {"type": "Point", "coordinates": [-13.563447, 9.65123]}, "properties": {"id": "osm_n5762456553", "name": "CS la belle province", "level": "Unknown", "operator_type": null, "iso": "GIN", "country": "Guinea", "source": "osm"}}, {"type": "Feature", "geometry": {"type": "Point", "coordinates": [-13.665706, 9.552421]}, "properties": {"id": "osm_n5769325424", "name": "CS Lavoisier", "level": "Unknown", "operator_type": null, "iso": "GIN", "country": "Guinea", "source": "osm"}}, {"type": "Feature", "geometry": {"type": "Point", "coordinates": [-13.606445, 9.590322]}, "properties": {"id": "osm_n5777818463", "name": "CDL'EX", "level": "Unknown", "operator_type": null, "iso": "GIN", "country": "Guinea", "source": "osm"}}, {"type": "Feature", "geometry": {"type": "Point", "coordinates": [-13.539767, 9.655501]}, "properties": {"id": "osm_n5777818470", "name": "GS Notre M\u00e8re Plus", "level": "Unknown", "operator_type": null, "iso": "GIN", "country": "Guinea", "source": "osm"}}, {"type": "Feature", "geometry": {"type": "Point", "coordinates": [-13.672217, 9.538153]}, "properties": {"id": "osm_n5784052365", "name": "GS El Mara TOURE", "level": "Unknown", "operator_type": null, "iso": "GIN", "country": "Guinea", "source": "osm"}}, {"type": "Feature", "geometry": {"type": "Point", "coordinates": [-13.609253, 9.616934]}, "properties": {"id": "osm_n5796994185", "name": "Ecole Missionnaire", "level": "Unknown", "operator_type": null, "iso": "GIN", "country": "Guinea", "source": "osm"}}, {"type": "Feature", "geometry": {"type": "Point", "coordinates": [-13.637914, 9.576953]}, "properties": {"id": "osm_n5796994492", "name": "GSP Fidel Castro", "level": "Unknown", "operator_type": null, "iso": "GIN", "country": "Guinea", "source": "osm"}}, {"type": "Feature", "geometry": {"type": "Point", "coordinates": [-13.60855, 9.619131]}, "properties": {"id": "osm_n5796994493", "name": "GS les \u00e9lites", "level": "Unknown", "operator_type": null, "iso": "GIN", "country": "Guinea", "source": "osm"}}, {"type": "Feature", "geometry": {"type": "Point", "coordinates": [-13.619053, 9.628098]}, "properties": {"id": "osm_n5796994876", "name": "Badou \u00e9cole", "level": "Unknown", "operator_type": null, "iso": "GIN", "country": "Guinea", "source": "osm"}}, {"type": "Feature", "geometry": {"type": "Point", "coordinates": [-13.602366, 9.607215]}, "properties": {"id": "osm_n5796995130", "name": "Junior Secondary Scool", "level": "Unknown", "operator_type": null, "iso": "GIN", "country": "Guinea", "source": "osm"}}, {"type": "Feature", "geometry": {"type": "Point", "coordinates": [-13.525017, 9.667327]}, "properties": {"id": "osm_n5801153462", "name": "CS Ernesto Ch\u00e9 Guevara", "level": "Unknown", "operator_type": null, "iso": "GIN", "country": "Guinea", "source": "osm"}}, {"type": "Feature", "geometry": {"type": "Point", "coordinates": [-13.584286, 9.622964]}, "properties": {"id": "osm_n5809042189", "name": "CS Yari SOUMAH", "level": "Unknown", "operator_type": null, "iso": "GIN", "country": "Guinea", "source": "osm"}}, {"type": "Feature", "geometry": {"type": "Point", "coordinates": [-13.582619, 9.623926]}, "properties": {"id": "osm_n5809042190", "name": "GS Bernadette Mushya", "level": "Unknown", "operator_type": null, "iso": "GIN", "country": "Guinea", "source": "osm"}}, {"type": "Feature", "geometry": {"type": "Point", "coordinates": [-13.51291, 9.687856]}, "properties": {"id": "osm_n5809042202", "name": "GS Hadja M'Balou BAYO", "level": "Unknown", "operator_type": null, "iso": "GIN", "country": "Guinea", "source": "osm"}}, {"type": "Feature", "geometry": {"type": "Point", "coordinates": [-13.590083, 9.617514]}, "properties": {"id": "osm_n5809042769", "name": "GS Souar\u00e9 & fr\u00e8re", "level": "Unknown", "operator_type": null, "iso": "GIN", "country": "Guinea", "source": "osm"}}, {"type": "Feature", "geometry": {"type": "Point", "coordinates": [-13.508337, 9.694857]}, "properties": {"id": "osm_n5809042780", "name": "GS El Hadj Mohamed L. DIABY", "level": "Unknown", "operator_type": null, "iso": "GIN", "country": "Guinea", "source": "osm"}}, {"type": "Feature", "geometry": {"type": "Point", "coordinates": [-13.508277, 9.704205]}, "properties": {"id": "osm_n5809043335", "name": "GS Kale Max (GSKM)", "level": "Unknown", "operator_type": null, "iso": "GIN", "country": "Guinea", "source": "osm"}}, {"type": "Feature", "geometry": {"type": "Point", "coordinates": [-13.510865, 9.702547]}, "properties": {"id": "osm_n5809043336", "name": "GS El Abdoulaye DIALLO", "level": "Unknown", "operator_type": null, "iso": "GIN", "country": "Guinea", "source": "osm"}}, {"type": "Feature", "geometry": {"type": "Point", "coordinates": [-13.359469, 9.67287]}, "properties": {"id": "osm_n5827938359", "name": "Ecol\u00e9 primaire Nasser", "level": "Unknown", "operator_type": null, "iso": "GIN", "country": "Guinea", "source": "osm"}}, {"type": "Feature", "geometry": {"type": "Point", "coordinates": [-13.382395, 9.691647]}, "properties": {"id": "osm_n5827938941", "name": "\u00c9cole primaire de Doumbouyah", "level": "Unknown", "operator_type": null, "iso": "GIN", "country": "Guinea", "source": "osm"}}, {"type": "Feature", "geometry": {"type": "Point", "coordinates": [-13.558525, 9.646331]}, "properties": {"id": "osm_n5828168831", "name": "GS Martin Lutter King", "level": "Unknown", "operator_type": null, "iso": "GIN", "country": "Guinea", "source": "osm"}}, {"type": "Feature", "geometry": {"type": "Point", "coordinates": [-13.630497, 9.569648]}, "properties": {"id": "osm_n5839093998", "name": "CS Emak", "level": "Unknown", "operator_type": null, "iso": "GIN", "country": "Guinea", "source": "osm"}}, {"type": "Feature", "geometry": {"type": "Point", "coordinates": [-13.55339, 9.648613]}, "properties": {"id": "osm_n5842711441", "name": "Groupe Scolaire Cheick Abdoul Kaba", "level": "Unknown", "operator_type": null, "iso": "GIN", "country": "Guinea", "source": "osm"}}, {"type": "Feature", "geometry": {"type": "Point", "coordinates": [-13.649958, 9.569756]}, "properties": {"id": "osm_n5861168623", "name": "EP El Hadj Oumar 2", "level": "Unknown", "operator_type": null, "iso": "GIN", "country": "Guinea", "source": "osm"}}, {"type": "Feature", "geometry": {"type": "Point", "coordinates": [-13.627501, 9.561374]}, "properties": {"id": "osm_n5866693319", "name": "GS Nouroul Islam", "level": "Unknown", "operator_type": null, "iso": "GIN", "country": "Guinea", "source": "osm"}}, {"type": "Feature", "geometry": {"type": "Point", "coordinates": [-13.626814, 9.560061]}, "properties": {"id": "osm_n5866699578", "name": "EP Gbessia Port1", "level": "Unknown", "operator_type": null, "iso": "GIN", "country": "Guinea", "source": "osm"}}, {"type": "Feature", "geometry": {"type": "Point", "coordinates": [-13.629669, 9.565998]}, "properties": {"id": "osm_n5866701393", "name": "GS Aim\u00e9 C\u00e9saire", "level": "Unknown", "operator_type": null, "iso": "GIN", "country": "Guinea", "source": "osm"}}, {"type": "Feature", "geometry": {"type": "Point", "coordinates": [-13.7664, 11.573425]}, "properties": {"id": "osm_n5891366679", "name": "\u00c9cole primaire de Hore bendja", "level": "Unknown", "operator_type": null, "iso": "GIN", "country": "Guinea", "source": "osm"}}, {"type": "Feature", "geometry": {"type": "Point", "coordinates": [-13.545422, 9.680578]}, "properties": {"id": "osm_n5891886592", "name": "Mamadou oury Barry (MOB)", "level": "Unknown", "operator_type": null, "iso": "GIN", "country": "Guinea", "source": "osm"}}, {"type": "Feature", "geometry": {"type": "Point", "coordinates": [-13.552889, 9.672177]}, "properties": {"id": "osm_n5892882058", "name": "GS Pellal Internationale", "level": "Unknown", "operator_type": null, "iso": "GIN", "country": "Guinea", "source": "osm"}}, {"type": "Feature", "geometry": {"type": "Point", "coordinates": [-13.584907, 9.647664]}, "properties": {"id": "osm_n5892889766", "name": "GS Avenir d'Afrique", "level": "Unknown", "operator_type": null, "iso": "GIN", "country": "Guinea", "source": "osm"}}, {"type": "Feature", "geometry": {"type": "Point", "coordinates": [-13.649399, 9.580992]}, "properties": {"id": "osm_n5895185066", "name": "GS El Hadj Mamadou Bailo Bah", "level": "Unknown", "operator_type": null, "iso": "GIN", "country": "Guinea", "source": "osm"}}, {"type": "Feature", "geometry": {"type": "Point", "coordinates": [-13.609697, 9.609889]}, "properties": {"id": "osm_n5895185067", "name": "GS Timbo Internationale", "level": "Unknown", "operator_type": null, "iso": "GIN", "country": "Guinea", "source": "osm"}}, {"type": "Feature", "geometry": {"type": "Point", "coordinates": [-13.589941, 9.605721]}, "properties": {"id": "osm_n5902770026", "name": "Le Kirikou", "level": "Unknown", "operator_type": null, "iso": "GIN", "country": "Guinea", "source": "osm"}}, {"type": "Feature", "geometry": {"type": "Point", "coordinates": [-13.641505, 9.561078]}, "properties": {"id": "osm_n5908586302", "name": "Coll\u00e8ge Bonfi 2", "level": "Unknown", "operator_type": null, "iso": "GIN", "country": "Guinea", "source": "osm"}}, {"type": "Feature", "geometry": {"type": "Point", "coordinates": [-13.660789, 9.553773]}, "properties": {"id": "osm_n5919384482", "name": "CS M'bemba Bangoura", "level": "Unknown", "operator_type": null, "iso": "GIN", "country": "Guinea", "source": "osm"}}, {"type": "Feature", "geometry": {"type": "Point", "coordinates": [-13.682268, 9.527059]}, "properties": {"id": "osm_n5919387285", "name": "GS Koumandjan Keita Coleah", "level": "Unknown", "operator_type": null, "iso": "GIN", "country": "Guinea", "source": "osm"}}, {"type": "Feature", "geometry": {"type": "Point", "coordinates": [-13.666811, 9.548023]}, "properties": {"id": "osm_n5919387387", "name": "GS Salematou Tour\u00e9", "level": "Unknown", "operator_type": null, "iso": "GIN", "country": "Guinea", "source": "osm"}}, {"type": "Feature", "geometry": {"type": "Point", "coordinates": [-13.64382, 9.552582]}, "properties": {"id": "osm_n5922246055", "name": "International modren school", "level": "Unknown", "operator_type": null, "iso": "GIN", "country": "Guinea", "source": "osm"}}, {"type": "Feature", "geometry": {"type": "Point", "coordinates": [-13.663451, 9.54065]}, "properties": {"id": "osm_n5922246746", "name": "GS la Haute Mar\u00e9e", "level": "Unknown", "operator_type": null, "iso": "GIN", "country": "Guinea", "source": "osm"}}, {"type": "Feature", "geometry": {"type": "Point", "coordinates": [-13.638243, 9.557087]}, "properties": {"id": "osm_n5937808203", "name": "\u00c9cole primaire de Bonfi Port", "level": "Unknown", "operator_type": null, "iso": "GIN", "country": "Guinea", "source": "osm"}}, {"type": "Feature", "geometry": {"type": "Point", "coordinates": [-13.6394, 9.557802]}, "properties": {"id": "osm_n5937808347", "name": "GS Fobis", "level": "Unknown", "operator_type": null, "iso": "GIN", "country": "Guinea", "source": "osm"}}, {"type": "Feature", "geometry": {"type": "Point", "coordinates": [-13.64516, 9.557913]}, "properties": {"id": "osm_n5939260283", "name": "GS GanGan", "level": "Unknown", "operator_type": null, "iso": "GIN", "country": "Guinea", "source": "osm"}}, {"type": "Feature", "geometry": {"type": "Point", "coordinates": [-13.646078, 9.557864]}, "properties": {"id": "osm_n5939260284", "name": "GS Hadja M'Balou", "level": "Unknown", "operator_type": null, "iso": "GIN", "country": "Guinea", "source": "osm"}}, {"type": "Feature", "geometry": {"type": "Point", "coordinates": [-13.641398, 9.562089]}, "properties": {"id": "osm_n5946411567", "name": "Sabu international school", "level": "Unknown", "operator_type": null, "iso": "GIN", "country": "Guinea", "source": "osm"}}, {"type": "Feature", "geometry": {"type": "Point", "coordinates": [-13.662927, 9.543273]}, "properties": {"id": "osm_n5946421536", "name": "\u00c9cole primaire de Madina", "level": "Unknown", "operator_type": null, "iso": "GIN", "country": "Guinea", "source": "osm"}}, {"type": "Feature", "geometry": {"type": "Point", "coordinates": [-13.669844, 9.537624]}, "properties": {"id": "osm_n5946474939", "name": "\u00c9cole primaire franco-arabe Mafanco 2", "level": "Unknown", "operator_type": null, "iso": "GIN", "country": "Guinea", "source": "osm"}}, {"type": "Feature", "geometry": {"type": "Point", "coordinates": [-13.668616, 9.53977]}, "properties": {"id": "osm_n5952487585", "name": "\u00c9cole El Hadj Oumar Tall", "level": "Unknown", "operator_type": null, "iso": "GIN", "country": "Guinea", "source": "osm"}}, {"type": "Feature", "geometry": {"type": "Point", "coordinates": [-13.60313, 9.605905]}, "properties": {"id": "osm_n5956723667", "name": "\u00c9cole primaire de Limanya", "level": "Unknown", "operator_type": null, "iso": "GIN", "country": "Guinea", "source": "osm"}}, {"type": "Feature", "geometry": {"type": "Point", "coordinates": [-13.674005, 9.537978]}, "properties": {"id": "osm_n5956876508", "name": "\u00c9cole priv\u00e9e MO. LA. SY", "level": "Unknown", "operator_type": null, "iso": "GIN", "country": "Guinea", "source": "osm"}}, {"type": "Feature", "geometry": {"type": "Point", "coordinates": [-13.600464, 9.595716]}, "properties": {"id": "osm_n5960760812", "name": "Groupe Scolaire Alpha Ibrahima Camara", "level": "Unknown", "operator_type": "private", "iso": "GIN", "country": "Guinea", "source": "osm"}}, {"type": "Feature", "geometry": {"type": "Point", "coordinates": [-13.601545, 9.594765]}, "properties": {"id": "osm_n5960767950", "name": "Groupe Scolaire Hadja Mariama Dubreka Camara", "level": "Unknown", "operator_type": "private", "iso": "GIN", "country": "Guinea", "source": "osm"}}, {"type": "Feature", "geometry": {"type": "Point", "coordinates": [-13.655501, 9.582901]}, "properties": {"id": "osm_n5960831000", "name": "CS Marie Antoinette", "level": "Unknown", "operator_type": null, "iso": "GIN", "country": "Guinea", "source": "osm"}}, {"type": "Feature", "geometry": {"type": "Point", "coordinates": [-13.614063, 9.608742]}, "properties": {"id": "osm_n5960833893", "name": "GS Canaan", "level": "Unknown", "operator_type": null, "iso": "GIN", "country": "Guinea", "source": "osm"}}, {"type": "Feature", "geometry": {"type": "Point", "coordinates": [-13.618461, 9.612638]}, "properties": {"id": "osm_n5960834430", "name": "GS Assia \u00e9cole", "level": "Unknown", "operator_type": null, "iso": "GIN", "country": "Guinea", "source": "osm"}}, {"type": "Feature", "geometry": {"type": "Point", "coordinates": [-13.652315, 9.560147]}, "properties": {"id": "osm_n5962438377", "name": "GS Garaya 1", "level": "Unknown", "operator_type": null, "iso": "GIN", "country": "Guinea", "source": "osm"}}, {"type": "Feature", "geometry": {"type": "Point", "coordinates": [-13.674252, 9.5491]}, "properties": {"id": "osm_n5966554718", "name": "Ecole. Dixinn Centre 2", "level": "Unknown", "operator_type": null, "iso": "GIN", "country": "Guinea", "source": "osm"}}, {"type": "Feature", "geometry": {"type": "Point", "coordinates": [-13.650953, 9.567537]}, "properties": {"id": "osm_n5970586855", "name": "GS Mission internationale la vie de dieu", "level": "Unknown", "operator_type": null, "iso": "GIN", "country": "Guinea", "source": "osm"}}, {"type": "Feature", "geometry": {"type": "Point", "coordinates": [-13.650952, 9.567828]}, "properties": {"id": "osm_n5970586856", "name": "GS Wodia Berete", "level": "Unknown", "operator_type": null, "iso": "GIN", "country": "Guinea", "source": "osm"}}, {"type": "Feature", "geometry": {"type": "Point", "coordinates": [-13.653121, 9.569707]}, "properties": {"id": "osm_n5977003704", "name": "Jubil\u00e9 Internationale School", "level": "Unknown", "operator_type": null, "iso": "GIN", "country": "Guinea", "source": "osm"}}, {"type": "Feature", "geometry": {"type": "Point", "coordinates": [-13.654044, 9.566526]}, "properties": {"id": "osm_n5977003706", "name": "GS Fatoumata Toure", "level": "Unknown", "operator_type": null, "iso": "GIN", "country": "Guinea", "source": "osm"}}, {"type": "Feature", "geometry": {"type": "Point", "coordinates": [-13.657238, 9.556164]}, "properties": {"id": "osm_n5977003711", "name": "GS Hadja Fatoumata Barry", "level": "Unknown", "operator_type": null, "iso": "GIN", "country": "Guinea", "source": "osm"}}, {"type": "Feature", "geometry": {"type": "Point", "coordinates": [-13.657721, 9.556606]}, "properties": {"id": "osm_n5977003714", "name": "EP Hafia Mosqu\u00e9e", "level": "Unknown", "operator_type": null, "iso": "GIN", "country": "Guinea", "source": "osm"}}, {"type": "Feature", "geometry": {"type": "Point", "coordinates": [-13.654747, 9.566345]}, "properties": {"id": "osm_n5977003993", "name": "Jubil\u00e9e International school", "level": "Unknown", "operator_type": null, "iso": "GIN", "country": "Guinea", "source": "osm"}}, {"type": "Feature", "geometry": {"type": "Point", "coordinates": [-13.653812, 9.567673]}, "properties": {"id": "osm_n5977003994", "name": "GS le Rocher", "level": "Unknown", "operator_type": null, "iso": "GIN", "country": "Guinea", "source": "osm"}}, {"type": "Feature", "geometry": {"type": "Point", "coordinates": [-13.655188, 9.556746]}, "properties": {"id": "osm_n5977003998", "name": "EP El Hadj Oumar 1", "level": "Unknown", "operator_type": null, "iso": "GIN", "country": "Guinea", "source": "osm"}}, {"type": "Feature", "geometry": {"type": "Point", "coordinates": [-13.654367, 9.566987]}, "properties": {"id": "osm_n5977004669", "name": "Dofoum", "level": "Unknown", "operator_type": null, "iso": "GIN", "country": "Guinea", "source": "osm"}}, {"type": "Feature", "geometry": {"type": "Point", "coordinates": [-13.666091, 9.55196]}, "properties": {"id": "osm_n5983232432", "name": "Groupe Scolaire Notre-Dame de la Paix", "level": "Unknown", "operator_type": null, "iso": "GIN", "country": "Guinea", "source": "osm"}}, {"type": "Feature", "geometry": {"type": "Point", "coordinates": [-13.708797, 9.512258]}, "properties": {"id": "osm_n5991401128", "name": "EP Franco-arabe de la Gare", "level": "Unknown", "operator_type": null, "iso": "GIN", "country": "Guinea", "source": "osm"}}, {"type": "Feature", "geometry": {"type": "Point", "coordinates": [-13.696008, 9.517849]}, "properties": {"id": "osm_n5991401175", "name": "\u00c9cole priv\u00e9e mes Fleurs", "level": "Unknown", "operator_type": null, "iso": "GIN", "country": "Guinea", "source": "osm"}}, {"type": "Feature", "geometry": {"type": "Point", "coordinates": [-13.711725, 9.512936]}, "properties": {"id": "osm_n5991403371", "name": "EP Almamya", "level": "Unknown", "operator_type": null, "iso": "GIN", "country": "Guinea", "source": "osm"}}, {"type": "Feature", "geometry": {"type": "Point", "coordinates": [-13.524672, 9.664073]}, "properties": {"id": "osm_n5991403383", "name": "Lyc\u00e9e public M'balia Camara", "level": "Unknown", "operator_type": null, "iso": "GIN", "country": "Guinea", "source": "osm"}}, {"type": "Feature", "geometry": {"type": "Point", "coordinates": [-13.526998, 9.669339]}, "properties": {"id": "osm_n5991404785", "name": "GS St Alexandre", "level": "Unknown", "operator_type": null, "iso": "GIN", "country": "Guinea", "source": "osm"}}, {"type": "Feature", "geometry": {"type": "Point", "coordinates": [-13.531785, 9.667067]}, "properties": {"id": "osm_n5991404786", "name": "EP de Lansanayah", "level": "Unknown", "operator_type": null, "iso": "GIN", "country": "Guinea", "source": "osm"}}, {"type": "Feature", "geometry": {"type": "Point", "coordinates": [-13.533269, 9.667704]}, "properties": {"id": "osm_n5994148409", "name": "GS Hafadou", "level": "Unknown", "operator_type": null, "iso": "GIN", "country": "Guinea", "source": "osm"}}, {"type": "Feature", "geometry": {"type": "Point", "coordinates": [-13.52424, 9.664028]}, "properties": {"id": "osm_n5994148594", "name": "(unnamed)", "level": "Unknown", "operator_type": null, "iso": "GIN", "country": "Guinea", "source": "osm"}}, {"type": "Feature", "geometry": {"type": "Point", "coordinates": [-13.572247, 9.627492]}, "properties": {"id": "osm_n5997657732", "name": "GSP des \u00e9lites Gnenuoyah", "level": "Unknown", "operator_type": null, "iso": "GIN", "country": "Guinea", "source": "osm"}}, {"type": "Feature", "geometry": {"type": "Point", "coordinates": [-13.569588, 9.628939]}, "properties": {"id": "osm_n5997663432", "name": "GS Fanco-arabe El Hadj Kaba", "level": "Unknown", "operator_type": null, "iso": "GIN", "country": "Guinea", "source": "osm"}}, {"type": "Feature", "geometry": {"type": "Point", "coordinates": [-13.585755, 9.611034]}, "properties": {"id": "osm_n6001599438", "name": "GS Garaya 2", "level": "Unknown", "operator_type": null, "iso": "GIN", "country": "Guinea", "source": "osm"}}, {"type": "Feature", "geometry": {"type": "Point", "coordinates": [-13.609989, 9.585508]}, "properties": {"id": "osm_n6005755731", "name": "CS la merveille \u00e9cole", "level": "Unknown", "operator_type": null, "iso": "GIN", "country": "Guinea", "source": "osm"}}, {"type": "Feature", "geometry": {"type": "Point", "coordinates": [-13.569943, 9.635295]}, "properties": {"id": "osm_n6005758364", "name": "(unnamed)", "level": "Unknown", "operator_type": null, "iso": "GIN", "country": "Guinea", "source": "osm"}}, {"type": "Feature", "geometry": {"type": "Point", "coordinates": [-13.56925, 9.628168]}, "properties": {"id": "osm_n6005758854", "name": "GS Biya Conde", "level": "Unknown", "operator_type": null, "iso": "GIN", "country": "Guinea", "source": "osm"}}, {"type": "Feature", "geometry": {"type": "Point", "coordinates": [-13.599724, 9.606471]}, "properties": {"id": "osm_n6005759825", "name": "English academy", "level": "Unknown", "operator_type": null, "iso": "GIN", "country": "Guinea", "source": "osm"}}, {"type": "Feature", "geometry": {"type": "Point", "coordinates": [-13.621578, 9.565785]}, "properties": {"id": "osm_n6008502601", "name": "EP Gbessia Port 2", "level": "Unknown", "operator_type": null, "iso": "GIN", "country": "Guinea", "source": "osm"}}, {"type": "Feature", "geometry": {"type": "Point", "coordinates": [-13.615468, 9.568057]}, "properties": {"id": "osm_n6008503394", "name": "GSP Colone Muammar Kadhafi", "level": "Unknown", "operator_type": null, "iso": "GIN", "country": "Guinea", "source": "osm"}}, {"type": "Feature", "geometry": {"type": "Point", "coordinates": [-13.622223, 9.564671]}, "properties": {"id": "osm_n6008503586", "name": "GS cr\u00e8che bethlehem", "level": "Unknown", "operator_type": null, "iso": "GIN", "country": "Guinea", "source": "osm"}}, {"type": "Feature", "geometry": {"type": "Point", "coordinates": [-13.629492, 9.573363]}, "properties": {"id": "osm_n6011952480", "name": "GS Aboubacar Conte", "level": "Unknown", "operator_type": null, "iso": "GIN", "country": "Guinea", "source": "osm"}}, {"type": "Feature", "geometry": {"type": "Point", "coordinates": [-13.630022, 9.572673]}, "properties": {"id": "osm_n6011956415", "name": "CS El Hadj Mamadou Antonio Souare", "level": "Unknown", "operator_type": null, "iso": "GIN", "country": "Guinea", "source": "osm"}}, {"type": "Feature", "geometry": {"type": "Point", "coordinates": [-13.631332, 9.565564]}, "properties": {"id": "osm_n6014182438", "name": "Les \u00e9coles St Michel", "level": "Unknown", "operator_type": null, "iso": "GIN", "country": "Guinea", "source": "osm"}}, {"type": "Feature", "geometry": {"type": "Point", "coordinates": [-13.564854, 9.668409]}, "properties": {"id": "osm_n6023245442", "name": "GS Hadja Marie Soumah", "level": "Unknown", "operator_type": null, "iso": "GIN", "country": "Guinea", "source": "osm"}}, {"type": "Feature", "geometry": {"type": "Point", "coordinates": [-13.573006, 9.684522]}, "properties": {"id": "osm_n6023245445", "name": "GS Kossira", "level": "Unknown", "operator_type": null, "iso": "GIN", "country": "Guinea", "source": "osm"}}, {"type": "Feature", "geometry": {"type": "Point", "coordinates": [-13.572691, 9.682908]}, "properties": {"id": "osm_n6023245446", "name": "GS M'Bany Sidib\u00e9", "level": "Unknown", "operator_type": null, "iso": "GIN", "country": "Guinea", "source": "osm"}}, {"type": "Feature", "geometry": {"type": "Point", "coordinates": [-13.565182, 9.6686]}, "properties": {"id": "osm_n6023246846", "name": "GS Hadja A\u00efssata Dram\u00e9", "level": "Unknown", "operator_type": null, "iso": "GIN", "country": "Guinea", "source": "osm"}}, {"type": "Feature", "geometry": {"type": "Point", "coordinates": [-13.564195, 9.668817]}, "properties": {"id": "osm_n6023246920", "name": "GS Mariama Tounkan Diallo", "level": "Unknown", "operator_type": null, "iso": "GIN", "country": "Guinea", "source": "osm"}}, {"type": "Feature", "geometry": {"type": "Point", "coordinates": [-13.55498, 9.679833]}, "properties": {"id": "osm_n6027919771", "name": "GS Guelo", "level": "Unknown", "operator_type": null, "iso": "GIN", "country": "Guinea", "source": "osm"}}, {"type": "Feature", "geometry": {"type": "Point", "coordinates": [-13.559368, 9.683302]}, "properties": {"id": "osm_n6027921358", "name": "GS D\u00e9co Sonomy", "level": "Unknown", "operator_type": null, "iso": "GIN", "country": "Guinea", "source": "osm"}}, {"type": "Feature", "geometry": {"type": "Point", "coordinates": [-13.554569, 9.680595]}, "properties": {"id": "osm_n6027921359", "name": "GS Aboubacar Camara", "level": "Unknown", "operator_type": null, "iso": "GIN", "country": "Guinea", "source": "osm"}}, {"type": "Feature", "geometry": {"type": "Point", "coordinates": [-13.549681, 9.677976]}, "properties": {"id": "osm_n6027921360", "name": "Hadja Safourata Bah", "level": "Unknown", "operator_type": null, "iso": "GIN", "country": "Guinea", "source": "osm"}}, {"type": "Feature", "geometry": {"type": "Point", "coordinates": [-13.564035, 9.672226]}, "properties": {"id": "osm_n6033120365", "name": "GS Assiatou Bah", "level": "Unknown", "operator_type": null, "iso": "GIN", "country": "Guinea", "source": "osm"}}, {"type": "Feature", "geometry": {"type": "Point", "coordinates": [-13.536693, 9.68062]}, "properties": {"id": "osm_n6033128710", "name": "CS Futur G\u00e9n\u00e9ration", "level": "Unknown", "operator_type": null, "iso": "GIN", "country": "Guinea", "source": "osm"}}, {"type": "Feature", "geometry": {"type": "Point", "coordinates": [-13.572413, 9.679809]}, "properties": {"id": "osm_n6033129919", "name": "EP Sonfonia 1", "level": "Unknown", "operator_type": null, "iso": "GIN", "country": "Guinea", "source": "osm"}}, {"type": "Feature", "geometry": {"type": "Point", "coordinates": [-13.550512, 9.678292]}, "properties": {"id": "osm_n6034711658", "name": "EP Franco-Arabe Mamadou Ch\u00e9rif", "level": "Unknown", "operator_type": null, "iso": "GIN", "country": "Guinea", "source": "osm"}}, {"type": "Feature", "geometry": {"type": "Point", "coordinates": [-13.552033, 9.673945]}, "properties": {"id": "osm_n6034711660", "name": "\u00c9tablissement Abraham Lincoln", "level": "Unknown", "operator_type": null, "iso": "GIN", "country": "Guinea", "source": "osm"}}, {"type": "Feature", "geometry": {"type": "Point", "coordinates": [-13.555336, 9.677254]}, "properties": {"id": "osm_n6034711661", "name": "GS Bice Internationale", "level": "Unknown", "operator_type": null, "iso": "GIN", "country": "Guinea", "source": "osm"}}, {"type": "Feature", "geometry": {"type": "Point", "coordinates": [-13.660017, 9.572161]}, "properties": {"id": "osm_n6034718655", "name": "GS la Haute mar\u00e9e", "level": "Unknown", "operator_type": null, "iso": "GIN", "country": "Guinea", "source": "osm"}}, {"type": "Feature", "geometry": {"type": "Point", "coordinates": [-13.658713, 9.572345]}, "properties": {"id": "osm_n6034718969", "name": "GS la haute mar\u00e9e 2", "level": "Unknown", "operator_type": null, "iso": "GIN", "country": "Guinea", "source": "osm"}}, {"type": "Feature", "geometry": {"type": "Point", "coordinates": [-13.657324, 9.572966]}, "properties": {"id": "osm_n6034747525", "name": "CS la bonne m\u00e8re", "level": "Unknown", "operator_type": null, "iso": "GIN", "country": "Guinea", "source": "osm"}}, {"type": "Feature", "geometry": {"type": "Point", "coordinates": [-13.647093, 9.57737]}, "properties": {"id": "osm_n6034748216", "name": "GS la naissance du savoir", "level": "Unknown", "operator_type": null, "iso": "GIN", "country": "Guinea", "source": "osm"}}, {"type": "Feature", "geometry": {"type": "Point", "coordinates": [-13.650515, 9.573242]}, "properties": {"id": "osm_n6034748574", "name": "GSP la Grande \u00e9cole", "level": "Unknown", "operator_type": null, "iso": "GIN", "country": "Guinea", "source": "osm"}}, {"type": "Feature", "geometry": {"type": "Point", "coordinates": [-13.648272, 9.579752]}, "properties": {"id": "osm_n6034754287", "name": "GS Van Vollenhoven", "level": "Unknown", "operator_type": null, "iso": "GIN", "country": "Guinea", "source": "osm"}}, {"type": "Feature", "geometry": {"type": "Point", "coordinates": [-13.647907, 9.579213]}, "properties": {"id": "osm_n6034754724", "name": "GS N\u00e8n\u00e8 Asmaou Diallo", "level": "Unknown", "operator_type": null, "iso": "GIN", "country": "Guinea", "source": "osm"}}, {"type": "Feature", "geometry": {"type": "Point", "coordinates": [-13.652464, 9.576227]}, "properties": {"id": "osm_n6034767119", "name": "GSP Moudjitaba Diallo", "level": "Unknown", "operator_type": null, "iso": "GIN", "country": "Guinea", "source": "osm"}}, {"type": "Feature", "geometry": {"type": "Point", "coordinates": [-13.65793, 9.575926]}, "properties": {"id": "osm_n6034796131", "name": "GS le soleil levant", "level": "Unknown", "operator_type": null, "iso": "GIN", "country": "Guinea", "source": "osm"}}, {"type": "Feature", "geometry": {"type": "Point", "coordinates": [-13.629103, 9.59813]}, "properties": {"id": "osm_n6037436729", "name": "\u00c9cole priv\u00e9e Sabiloul Falaah", "level": "Unknown", "operator_type": null, "iso": "GIN", "country": "Guinea", "source": "osm"}}, {"type": "Feature", "geometry": {"type": "Point", "coordinates": [-13.628568, 9.596125]}, "properties": {"id": "osm_n6037439434", "name": "CS la Plume", "level": "Unknown", "operator_type": null, "iso": "GIN", "country": "Guinea", "source": "osm"}}, {"type": "Feature", "geometry": {"type": "Point", "coordinates": [-13.628316, 9.596542]}, "properties": {"id": "osm_n6037440955", "name": "Sierra International School", "level": "Unknown", "operator_type": null, "iso": "GIN", "country": "Guinea", "source": "osm"}}, {"type": "Feature", "geometry": {"type": "Point", "coordinates": [-13.623204, 9.597179]}, "properties": {"id": "osm_n6037441525", "name": "GS Mahawa Tour\u00e9", "level": "Unknown", "operator_type": null, "iso": "GIN", "country": "Guinea", "source": "osm"}}, {"type": "Feature", "geometry": {"type": "Point", "coordinates": [-13.62333, 9.597941]}, "properties": {"id": "osm_n6037441704", "name": "GS Yebe Diallo", "level": "Unknown", "operator_type": null, "iso": "GIN", "country": "Guinea", "source": "osm"}}, {"type": "Feature", "geometry": {"type": "Point", "coordinates": [-13.614904, 9.603147]}, "properties": {"id": "osm_n6039936965", "name": "Kadiza \u00c9cole", "level": "Unknown", "operator_type": null, "iso": "GIN", "country": "Guinea", "source": "osm"}}, {"type": "Feature", "geometry": {"type": "Point", "coordinates": [-13.613439, 9.600338]}, "properties": {"id": "osm_n6039943235", "name": "GS El Hadj Oumar Saidou Tall", "level": "Unknown", "operator_type": null, "iso": "GIN", "country": "Guinea", "source": "osm"}}, {"type": "Feature", "geometry": {"type": "Point", "coordinates": [-13.614869, 9.599405]}, "properties": {"id": "osm_n6039943236", "name": "GS Thierno Oumar Bah", "level": "Unknown", "operator_type": null, "iso": "GIN", "country": "Guinea", "source": "osm"}}, {"type": "Feature", "geometry": {"type": "Point", "coordinates": [-13.583638, 9.668232]}, "properties": {"id": "osm_n6042306962", "name": "EP Africof", "level": "Unknown", "operator_type": null, "iso": "GIN", "country": "Guinea", "source": "osm"}}, {"type": "Feature", "geometry": {"type": "Point", "coordinates": [-13.579253, 9.656208]}, "properties": {"id": "osm_n6042307258", "name": "GS Yattaya", "level": "Unknown", "operator_type": null, "iso": "GIN", "country": "Guinea", "source": "osm"}}, {"type": "Feature", "geometry": {"type": "Point", "coordinates": [-13.584173, 9.667669]}, "properties": {"id": "osm_n6042307261", "name": "GS Santa Maria", "level": "Unknown", "operator_type": null, "iso": "GIN", "country": "Guinea", "source": "osm"}}, {"type": "Feature", "geometry": {"type": "Point", "coordinates": [-13.586462, 9.667843]}, "properties": {"id": "osm_n6042307698", "name": "\u00c9cole priv\u00e9e El Hadj Oumar Diane 2", "level": "Unknown", "operator_type": null, "iso": "GIN", "country": "Guinea", "source": "osm"}}, {"type": "Feature", "geometry": {"type": "Point", "coordinates": [-12.258686, 10.686154]}, "properties": {"id": "osm_n6044712175", "name": "L'act", "level": "Unknown", "operator_type": null, "iso": "GIN", "country": "Guinea", "source": "osm"}}, {"type": "Feature", "geometry": {"type": "Point", "coordinates": [-13.620667, 9.637378]}, "properties": {"id": "osm_n6044920976", "name": "GS Arc-en-ciel", "level": "Unknown", "operator_type": null, "iso": "GIN", "country": "Guinea", "source": "osm"}}, {"type": "Feature", "geometry": {"type": "Point", "coordinates": [-13.627209, 9.580663]}, "properties": {"id": "osm_n6044975869", "name": "GS Humaniste Moussa Djawara", "level": "Unknown", "operator_type": null, "iso": "GIN", "country": "Guinea", "source": "osm"}}, {"type": "Feature", "geometry": {"type": "Point", "coordinates": [-13.636047, 9.572223]}, "properties": {"id": "osm_n6044976002", "name": "GS Elouk", "level": "Unknown", "operator_type": null, "iso": "GIN", "country": "Guinea", "source": "osm"}}, {"type": "Feature", "geometry": {"type": "Point", "coordinates": [-13.643578, 9.596545]}, "properties": {"id": "osm_n6049813042", "name": "GS Columbia school", "level": "Unknown", "operator_type": null, "iso": "GIN", "country": "Guinea", "source": "osm"}}, {"type": "Feature", "geometry": {"type": "Point", "coordinates": [-13.642962, 9.595902]}, "properties": {"id": "osm_n6049816610", "name": "Les \u00c9coles MAARIF Turco-Guin\u00e9ennes", "level": "Unknown", "operator_type": null, "iso": "GIN", "country": "Guinea", "source": "osm"}}, {"type": "Feature", "geometry": {"type": "Point", "coordinates": [-13.641318, 9.60084]}, "properties": {"id": "osm_n6049816697", "name": "GSP L\u00e9opold Sedar Senghor", "level": "Unknown", "operator_type": null, "iso": "GIN", "country": "Guinea", "source": "osm"}}, {"type": "Feature", "geometry": {"type": "Point", "coordinates": [-13.552918, 9.647219]}, "properties": {"id": "osm_n6051521382", "name": "CS Roi Hassan 2", "level": "Unknown", "operator_type": null, "iso": "GIN", "country": "Guinea", "source": "osm"}}, {"type": "Feature", "geometry": {"type": "Point", "coordinates": [-13.553426, 9.646916]}, "properties": {"id": "osm_n6051521601", "name": "CS Avenir", "level": "Unknown", "operator_type": null, "iso": "GIN", "country": "Guinea", "source": "osm"}}, {"type": "Feature", "geometry": {"type": "Point", "coordinates": [-13.605036, 9.604043]}, "properties": {"id": "osm_n6051524074", "name": "GS Unit\u00e9 nationale", "level": "Unknown", "operator_type": null, "iso": "GIN", "country": "Guinea", "source": "osm"}}, {"type": "Feature", "geometry": {"type": "Point", "coordinates": [-13.6322, 9.573752]}, "properties": {"id": "osm_n6051526728", "name": "GS Hadja Mama Yore Camara", "level": "Unknown", "operator_type": null, "iso": "GIN", "country": "Guinea", "source": "osm"}}, {"type": "Feature", "geometry": {"type": "Point", "coordinates": [-13.588205, 9.61526]}, "properties": {"id": "osm_n6060752633", "name": "Groupe scolaire la petite famille", "level": "Unknown", "operator_type": null, "iso": "GIN", "country": "Guinea", "source": "osm"}}, {"type": "Feature", "geometry": {"type": "Point", "coordinates": [-13.633133, 9.563916]}, "properties": {"id": "osm_n6063216988", "name": "Groupe scolaire Alliance Mr Soumah Bill Cliton", "level": "Unknown", "operator_type": null, "iso": "GIN", "country": "Guinea", "source": "osm"}}, {"type": "Feature", "geometry": {"type": "Point", "coordinates": [-13.633698, 9.563526]}, "properties": {"id": "osm_n6063216989", "name": "Groupe scolaire Adama Tounkara", "level": "Unknown", "operator_type": null, "iso": "GIN", "country": "Guinea", "source": "osm"}}, {"type": "Feature", "geometry": {"type": "Point", "coordinates": [-13.637209, 9.562551]}, "properties": {"id": "osm_n6063389721", "name": "Ecole Primaire Dabondy 1", "level": "Unknown", "operator_type": null, "iso": "GIN", "country": "Guinea", "source": "osm"}}, {"type": "Feature", "geometry": {"type": "Point", "coordinates": [-13.634782, 9.567027]}, "properties": {"id": "osm_n6069053649", "name": "CS Raka Fofana", "level": "Unknown", "operator_type": null, "iso": "GIN", "country": "Guinea", "source": "osm"}}, {"type": "Feature", "geometry": {"type": "Point", "coordinates": [-13.573524, 9.630917]}, "properties": {"id": "osm_n6072819028", "name": "GS Hadja Fanta Fofana", "level": "Unknown", "operator_type": null, "iso": "GIN", "country": "Guinea", "source": "osm"}}, {"type": "Feature", "geometry": {"type": "Point", "coordinates": [-13.573888, 9.631652]}, "properties": {"id": "osm_n6072823594", "name": "G. S Ibrahima kalil Konat\u00e9", "level": "Unknown", "operator_type": null, "iso": "GIN", "country": "Guinea", "source": "osm"}}, {"type": "Feature", "geometry": {"type": "Point", "coordinates": [-11.888884, 11.586468]}, "properties": {"id": "osm_n6078971540", "name": "Ecole Primaire de Koubia", "level": "Unknown", "operator_type": null, "iso": "GIN", "country": "Guinea", "source": "osm"}}, {"type": "Feature", "geometry": {"type": "Point", "coordinates": [-11.896652, 11.590141]}, "properties": {"id": "osm_n6079079708", "name": "Coll\u00e8ge de Koubia", "level": "Unknown", "operator_type": null, "iso": "GIN", "country": "Guinea", "source": "osm"}}, {"type": "Feature", "geometry": {"type": "Point", "coordinates": [-11.896673, 11.584466]}, "properties": {"id": "osm_n6079079709", "name": "Lyc\u00e9e de Koubia", "level": "Unknown", "operator_type": null, "iso": "GIN", "country": "Guinea", "source": "osm"}}, {"type": "Feature", "geometry": {"type": "Point", "coordinates": [-12.28182, 11.320793]}, "properties": {"id": "osm_n6079505866", "name": "Lyc\u00e9e Hoggo Mbouro", "level": "Unknown", "operator_type": null, "iso": "GIN", "country": "Guinea", "source": "osm"}}, {"type": "Feature", "geometry": {"type": "Point", "coordinates": [-12.350931, 11.901598]}, "properties": {"id": "osm_n6080256205", "name": "Ecole primaire de Samantan", "level": "Unknown", "operator_type": null, "iso": "GIN", "country": "Guinea", "source": "osm"}}, {"type": "Feature", "geometry": {"type": "Point", "coordinates": [-12.276173, 11.342857]}, "properties": {"id": "osm_n6080324562", "name": "Coll\u00e8ge Malea", "level": "Unknown", "operator_type": null, "iso": "GIN", "country": "Guinea", "source": "osm"}}, {"type": "Feature", "geometry": {"type": "Point", "coordinates": [-13.463764, 9.905774]}, "properties": {"id": "osm_n6090402431", "name": "\u00c9cole primaire de Soumba", "level": "Unknown", "operator_type": null, "iso": "GIN", "country": "Guinea", "source": "osm"}}, {"type": "Feature", "geometry": {"type": "Point", "coordinates": [-13.612478, 9.58695]}, "properties": {"id": "osm_n6122923923", "name": "EP Tan\u00e8n\u00e8", "level": "Unknown", "operator_type": null, "iso": "GIN", "country": "Guinea", "source": "osm"}}, {"type": "Feature", "geometry": {"type": "Point", "coordinates": [-13.526749, 9.664656]}, "properties": {"id": "osm_n6122924045", "name": "GS les Dauphins", "level": "Unknown", "operator_type": null, "iso": "GIN", "country": "Guinea", "source": "osm"}}, {"type": "Feature", "geometry": {"type": "Point", "coordinates": [-13.611246, 9.588333]}, "properties": {"id": "osm_n6122924251", "name": "GS Mazo Star", "level": "Unknown", "operator_type": null, "iso": "GIN", "country": "Guinea", "source": "osm"}}, {"type": "Feature", "geometry": {"type": "Point", "coordinates": [-12.348566, 11.818552]}, "properties": {"id": "osm_n6143352926", "name": "(unnamed)", "level": "Unknown", "operator_type": null, "iso": "GIN", "country": "Guinea", "source": "osm"}}, {"type": "Feature", "geometry": {"type": "Point", "coordinates": [-13.647021, 9.57158]}, "properties": {"id": "osm_n6163992685", "name": "G S Mohamed Barry", "level": "Unknown", "operator_type": null, "iso": "GIN", "country": "Guinea", "source": "osm"}}, {"type": "Feature", "geometry": {"type": "Point", "coordinates": [-13.649272, 9.581621]}, "properties": {"id": "osm_n6178284116", "name": "GS Hamdallaye Secondaire", "level": "Unknown", "operator_type": null, "iso": "GIN", "country": "Guinea", "source": "osm"}}, {"type": "Feature", "geometry": {"type": "Point", "coordinates": [-13.649115, 9.585862]}, "properties": {"id": "osm_n6178284636", "name": "GS Juillus N'Yerere", "level": "Unknown", "operator_type": null, "iso": "GIN", "country": "Guinea", "source": "osm"}}, {"type": "Feature", "geometry": {"type": "Point", "coordinates": [-13.647889, 9.586484]}, "properties": {"id": "osm_n6178284687", "name": "CS Marie Antoinette", "level": "Unknown", "operator_type": null, "iso": "GIN", "country": "Guinea", "source": "osm"}}, {"type": "Feature", "geometry": {"type": "Point", "coordinates": [-14.291611, 10.927323]}, "properties": {"id": "osm_n6206867520", "name": "\u00c9cole Maternelle Sacr\u00e9 Coeur de Bok\u00e9", "level": "Unknown", "operator_type": null, "iso": "GIN", "country": "Guinea", "source": "osm"}}, {"type": "Feature", "geometry": {"type": "Point", "coordinates": [-14.290175, 10.928647]}, "properties": {"id": "osm_n6225069508", "name": "\u00c9cole Sacr\u00e9 Coeur de Bok\u00e9", "level": "Unknown", "operator_type": null, "iso": "GIN", "country": "Guinea", "source": "osm"}}, {"type": "Feature", "geometry": {"type": "Point", "coordinates": [-13.516533, 9.723334]}, "properties": {"id": "osm_n6236273069", "name": "CS Alpha Suisse", "level": "Unknown", "operator_type": null, "iso": "GIN", "country": "Guinea", "source": "osm"}}, {"type": "Feature", "geometry": {"type": "Point", "coordinates": [-14.295127, 10.932123]}, "properties": {"id": "osm_n6274108419", "name": "\u00c9cole du centre", "level": "Unknown", "operator_type": null, "iso": "GIN", "country": "Guinea", "source": "osm"}}, {"type": "Feature", "geometry": {"type": "Point", "coordinates": [-13.64104, 9.584618]}, "properties": {"id": "osm_n6302774513", "name": "GS Djibril Tamsir NIANE", "level": "Unknown", "operator_type": null, "iso": "GIN", "country": "Guinea", "source": "osm"}}, {"type": "Feature", "geometry": {"type": "Point", "coordinates": [-13.595513, 9.625932]}, "properties": {"id": "osm_n6328556792", "name": "CS Sabadou", "level": "Unknown", "operator_type": null, "iso": "GIN", "country": "Guinea", "source": "osm"}}, {"type": "Feature", "geometry": {"type": "Point", "coordinates": [-14.279057, 10.935451]},